[
  {
    "id": "FR:trs",
    "name": "Tours",
    "city": "Tours",
    "country": "FR",
    "stopIds": [
      "0"
    ],
    "operators": [
      "TGVMAX"
    ],
    "lat": 47.389781,
    "lon": 0.693703
  },
  {
    "id": "FR:spc",
    "name": "St-Pierre-des-Corps",
    "city": "St-Pierre-des-Corps",
    "country": "FR",
    "stopIds": [
      "1"
    ],
    "operators": [
      "TGVMAX"
    ],
    "lat": 47.386099,
    "lon": 0.72355
  },
  {
    "id": "FR:mpw",
    "name": "Massy TGV",
    "city": "Massy TGV",
    "country": "FR",
    "stopIds": [
      "2"
    ],
    "operators": [
      "TGVMAX"
    ],
    "lat": 48.725758,
    "lon": 2.261254
  },
  {
    "id": "FR:val",
    "name": "Valence TGV",
    "city": "Valence TGV",
    "country": "FR",
    "stopIds": [
      "3"
    ],
    "operators": [
      "TGVMAX"
    ],
    "lat": 44.991545,
    "lon": 4.978703
  },
  {
    "id": "FR:lvi",
    "name": "Lyon Vaise",
    "city": "Lyon Vaise",
    "country": "FR",
    "stopIds": [
      "4"
    ],
    "operators": [
      "TGVMAX"
    ],
    "lat": 45.779938,
    "lon": 4.80396
  },
  {
    "id": "FR:msf",
    "name": "Montpellier Sud de France",
    "city": "Montpellier Sud de France",
    "country": "FR",
    "stopIds": [
      "5"
    ],
    "operators": [
      "TGVMAX"
    ],
    "lat": 43.59508,
    "lon": 3.92403
  },
  {
    "id": "FR:nts",
    "name": "Nantes",
    "city": "Nantes",
    "country": "FR",
    "stopIds": [
      "6"
    ],
    "operators": [
      "TGVMAX"
    ],
    "lat": 47.216148,
    "lon": -1.542356
  },
  {
    "id": "FR:nim",
    "name": "Nîmes Pont du Gard",
    "city": "Nîmes Pont du Gard",
    "country": "FR",
    "stopIds": [
      "7"
    ],
    "operators": [
      "TGVMAX"
    ],
    "lat": 43.816944,
    "lon": 4.507778
  },
  {
    "id": "FR:pby",
    "name": "Paris Bercy Bourgogne-Pays d’Auvergne",
    "city": "Paris Bercy Bourgogne-Pays d’Auvergne",
    "country": "FR",
    "stopIds": [
      "8"
    ],
    "operators": [
      "TGVMAX"
    ],
    "lat": 48.83917,
    "lon": 2.38278
  },
  {
    "id": "FR:cgv",
    "name": "Champagne-Ardenne TGV",
    "city": "Champagne-Ardenne TGV",
    "country": "FR",
    "stopIds": [
      "9"
    ],
    "operators": [
      "TGVMAX"
    ],
    "lat": 49.214806,
    "lon": 3.994632
  },
  {
    "id": "FR:tgm",
    "name": "Meuse TGV",
    "city": "Meuse TGV",
    "country": "FR",
    "stopIds": [
      "10"
    ],
    "operators": [
      "TGVMAX"
    ],
    "lat": 48.978549,
    "lon": 5.270954
  },
  {
    "id": "FR:lre",
    "name": "La Rochelle Ville",
    "city": "La Rochelle Ville",
    "country": "FR",
    "stopIds": [
      "11"
    ],
    "operators": [
      "TGVMAX"
    ],
    "lat": 46.15269,
    "lon": -1.145305
  },
  {
    "id": "FR:nrt",
    "name": "Niort",
    "city": "Niort",
    "country": "FR",
    "stopIds": [
      "12"
    ],
    "operators": [
      "TGVMAX"
    ],
    "lat": 46.319491,
    "lon": -0.454639
  },
  {
    "id": "FR:axv",
    "name": "Aix-en-Provence TGV",
    "city": "Aix-en-Provence TGV",
    "country": "FR",
    "stopIds": [
      "13"
    ],
    "operators": [
      "TGVMAX"
    ],
    "lat": 43.455237,
    "lon": 5.317534
  },
  {
    "id": "FR:djv",
    "name": "Dijon Ville",
    "city": "Dijon Ville",
    "country": "FR",
    "stopIds": [
      "14"
    ],
    "operators": [
      "TGVMAX"
    ],
    "lat": 47.32337,
    "lon": 5.027208
  },
  {
    "id": "FR:avv",
    "name": "Avignon TGV",
    "city": "Avignon TGV",
    "country": "FR",
    "stopIds": [
      "15"
    ],
    "operators": [
      "TGVMAX"
    ],
    "lat": 43.921586,
    "lon": 4.786079
  },
  {
    "id": "FR:stg",
    "name": "Strasbourg",
    "city": "Strasbourg",
    "country": "FR",
    "stopIds": [
      "16"
    ],
    "operators": [
      "TGVMAX"
    ],
    "lat": 48.584967,
    "lon": 7.734584
  },
  {
    "id": "FR:bfb",
    "name": "Belfort – Montbéliard TGV",
    "city": "Belfort – Montbéliard TGV",
    "country": "FR",
    "stopIds": [
      "17"
    ],
    "operators": [
      "TGVMAX"
    ],
    "lat": 47.585937,
    "lon": 6.897687
  },
  {
    "id": "FR:mac",
    "name": "Mâcon Ville",
    "city": "Mâcon Ville",
    "country": "FR",
    "stopIds": [
      "18"
    ],
    "operators": [
      "TGVMAX"
    ],
    "lat": 46.302572,
    "lon": 4.824887
  },
  {
    "id": "FR:cmr",
    "name": "Colmar",
    "city": "Colmar",
    "country": "FR",
    "stopIds": [
      "19"
    ],
    "operators": [
      "TGVMAX"
    ],
    "lat": 48.073201,
    "lon": 7.346967
  },
  {
    "id": "FR:can",
    "name": "Cannes",
    "city": "Cannes",
    "country": "FR",
    "stopIds": [
      "20"
    ],
    "operators": [
      "TGVMAX"
    ],
    "lat": 43.553839,
    "lon": 7.019682
  },
  {
    "id": "FR:bea",
    "name": "Beaune",
    "city": "Beaune",
    "country": "FR",
    "stopIds": [
      "21"
    ],
    "operators": [
      "TGVMAX"
    ],
    "lat": 47.023053,
    "lon": 4.848379
  },
  {
    "id": "FR:msc",
    "name": "Marseille St-Charles",
    "city": "Marseille St-Charles",
    "country": "FR",
    "stopIds": [
      "22"
    ],
    "operators": [
      "TGVMAX"
    ],
    "lat": 43.302666,
    "lon": 5.380407
  },
  {
    "id": "FR:mse",
    "name": "Mulhouse",
    "city": "Mulhouse",
    "country": "FR",
    "stopIds": [
      "23"
    ],
    "operators": [
      "TGVMAX"
    ],
    "lat": 47.742224,
    "lon": 7.342396
  },
  {
    "id": "FR:nic",
    "name": "Nice Ville",
    "city": "Nice Ville",
    "country": "FR",
    "stopIds": [
      "24"
    ],
    "operators": [
      "TGVMAX"
    ],
    "lat": 43.704556,
    "lon": 7.261904
  },
  {
    "id": "FR:tln",
    "name": "Toulon",
    "city": "Toulon",
    "country": "FR",
    "stopIds": [
      "25"
    ],
    "operators": [
      "TGVMAX"
    ],
    "lat": 43.12837,
    "lon": 5.929293
  },
  {
    "id": "FR:atb",
    "name": "Antibes",
    "city": "Antibes",
    "country": "FR",
    "stopIds": [
      "26"
    ],
    "operators": [
      "TGVMAX"
    ],
    "lat": 43.585784,
    "lon": 7.119498
  },
  {
    "id": "FR:srv",
    "name": "St-Raphaël – Valescure",
    "city": "St-Raphaël – Valescure",
    "country": "FR",
    "stopIds": [
      "27"
    ],
    "operators": [
      "TGVMAX"
    ],
    "lat": 43.42356,
    "lon": 6.769083
  },
  {
    "id": "FR:bfc",
    "name": "Besançon-Franche-Comté TGV",
    "city": "Besançon-Franche-Comté TGV",
    "country": "FR",
    "stopIds": [
      "28"
    ],
    "operators": [
      "TGVMAX"
    ],
    "lat": 47.307361,
    "lon": 5.953195
  },
  {
    "id": "FR:lac",
    "name": "Les Arcs – Draguignan",
    "city": "Les Arcs – Draguignan",
    "country": "FR",
    "stopIds": [
      "29"
    ],
    "operators": [
      "TGVMAX"
    ],
    "lat": 43.455524,
    "lon": 6.482498
  },
  {
    "id": "FR:bourcefranc-le-chapus",
    "name": "BOURCEFRANC LE CHAPUS",
    "city": "BOURCEFRANC LE CHAPUS",
    "country": "FR",
    "stopIds": [
      "30"
    ],
    "operators": [
      "TGVMAX"
    ],
    "lat": 0,
    "lon": 0
  },
  {
    "id": "FR:marennes",
    "name": "MARENNES",
    "city": "MARENNES",
    "country": "FR",
    "stopIds": [
      "31"
    ],
    "operators": [
      "TGVMAX"
    ],
    "lat": 0,
    "lon": 0
  },
  {
    "id": "FR:sge",
    "name": "Surgères",
    "city": "Surgères",
    "country": "FR",
    "stopIds": [
      "32"
    ],
    "operators": [
      "TGVMAX"
    ],
    "lat": 46.113238,
    "lon": -0.762284
  },
  {
    "id": "FR:st-pierre-d-oleron",
    "name": "ST PIERRE D'OLERON",
    "city": "ST PIERRE D'OLERON",
    "country": "FR",
    "stopIds": [
      "33"
    ],
    "operators": [
      "TGVMAX"
    ],
    "lat": 0,
    "lon": 0
  },
  {
    "id": "FR:dolus-d-oleron",
    "name": "DOLUS D'OLERON",
    "city": "DOLUS D'OLERON",
    "country": "FR",
    "stopIds": [
      "34"
    ],
    "operators": [
      "TGVMAX"
    ],
    "lat": 0,
    "lon": 0
  },
  {
    "id": "FR:saint-mihiel",
    "name": "SAINT MIHIEL",
    "city": "SAINT MIHIEL",
    "country": "FR",
    "stopIds": [
      "35"
    ],
    "operators": [
      "TGVMAX"
    ],
    "lat": 0,
    "lon": 0
  },
  {
    "id": "FR:saint-mihiel-detention",
    "name": "SAINT MIHIEL DETENTION",
    "city": "SAINT MIHIEL DETENTION",
    "country": "FR",
    "stopIds": [
      "36"
    ],
    "operators": [
      "TGVMAX"
    ],
    "lat": 0,
    "lon": 0
  },
  {
    "id": "FR:bzs",
    "name": "Béziers",
    "city": "Béziers",
    "country": "FR",
    "stopIds": [
      "37"
    ],
    "operators": [
      "TGVMAX"
    ],
    "lat": 43.33633,
    "lon": 3.218873
  },
  {
    "id": "FR:cne",
    "name": "Carcassonne",
    "city": "Carcassonne",
    "country": "FR",
    "stopIds": [
      "38"
    ],
    "operators": [
      "TGVMAX"
    ],
    "lat": 43.218029,
    "lon": 2.351824
  },
  {
    "id": "FR:nms",
    "name": "Nîmes Centre",
    "city": "Nîmes Centre",
    "country": "FR",
    "stopIds": [
      "39"
    ],
    "operators": [
      "TGVMAX"
    ],
    "lat": 43.832291,
    "lon": 4.365845
  },
  {
    "id": "FR:nbn",
    "name": "Narbonne",
    "city": "Narbonne",
    "country": "FR",
    "stopIds": [
      "40"
    ],
    "operators": [
      "TGVMAX"
    ],
    "lat": 43.190387,
    "lon": 3.00591
  },
  {
    "id": "FR:tse",
    "name": "Toulouse Matabiau",
    "city": "Toulouse Matabiau",
    "country": "FR",
    "stopIds": [
      "41"
    ],
    "operators": [
      "TGVMAX"
    ],
    "lat": 43.611206,
    "lon": 1.453616
  },
  {
    "id": "FR:ste",
    "name": "Sète",
    "city": "Sète",
    "country": "FR",
    "stopIds": [
      "42"
    ],
    "operators": [
      "TGVMAX"
    ],
    "lat": 43.412485,
    "lon": 3.69656
  },
  {
    "id": "FR:pau",
    "name": "Pau",
    "city": "Pau",
    "country": "FR",
    "stopIds": [
      "43"
    ],
    "operators": [
      "TGVMAX"
    ],
    "lat": 43.291762,
    "lon": -0.369626
  },
  {
    "id": "FR:hed",
    "name": "Hendaye",
    "city": "Hendaye",
    "country": "FR",
    "stopIds": [
      "44"
    ],
    "operators": [
      "TGVMAX"
    ],
    "lat": 43.353132,
    "lon": -1.781724
  },
  {
    "id": "FR:ort",
    "name": "Orthez",
    "city": "Orthez",
    "country": "FR",
    "stopIds": [
      "45"
    ],
    "operators": [
      "TGVMAX"
    ],
    "lat": 43.484242,
    "lon": -0.76776
  },
  {
    "id": "FR:lds",
    "name": "Lourdes",
    "city": "Lourdes",
    "country": "FR",
    "stopIds": [
      "46"
    ],
    "operators": [
      "TGVMAX"
    ],
    "lat": 43.10037,
    "lon": -0.042174
  },
  {
    "id": "FR:biz",
    "name": "Biarritz",
    "city": "Biarritz",
    "country": "FR",
    "stopIds": [
      "47"
    ],
    "operators": [
      "TGVMAX"
    ],
    "lat": 43.459397,
    "lon": -1.545915
  },
  {
    "id": "FR:bye",
    "name": "Bayonne",
    "city": "Bayonne",
    "country": "FR",
    "stopIds": [
      "48"
    ],
    "operators": [
      "TGVMAX"
    ],
    "lat": 43.496801,
    "lon": -1.470306
  },
  {
    "id": "FR:sjz",
    "name": "St-Jean-de-Luz – Ciboure",
    "city": "St-Jean-de-Luz – Ciboure",
    "country": "FR",
    "stopIds": [
      "49"
    ],
    "operators": [
      "TGVMAX"
    ],
    "lat": 43.385838,
    "lon": -1.66122
  },
  {
    "id": "FR:tbs",
    "name": "Tarbes",
    "city": "Tarbes",
    "country": "FR",
    "stopIds": [
      "50"
    ],
    "operators": [
      "TGVMAX"
    ],
    "lat": 43.239955,
    "lon": 0.069415
  },
  {
    "id": "FR:lnz",
    "name": "Lannemezan",
    "city": "Lannemezan",
    "country": "FR",
    "stopIds": [
      "51"
    ],
    "operators": [
      "TGVMAX"
    ],
    "lat": 43.114273,
    "lon": 0.387367
  },
  {
    "id": "FR:ncy",
    "name": "Nancy",
    "city": "Nancy",
    "country": "FR",
    "stopIds": [
      "52"
    ],
    "operators": [
      "TGVMAX"
    ],
    "lat": 48.689861,
    "lon": 6.174583
  },
  {
    "id": "FR:lcc",
    "name": "Le Croisic",
    "city": "Le Croisic",
    "country": "FR",
    "stopIds": [
      "53"
    ],
    "operators": [
      "TGVMAX"
    ],
    "lat": 47.289836,
    "lon": -2.507442
  },
  {
    "id": "FR:basel-sbb",
    "name": "BASEL SBB",
    "city": "BASEL SBB",
    "country": "FR",
    "stopIds": [
      "54"
    ],
    "operators": [
      "TGVMAX"
    ],
    "lat": 0,
    "lon": 0
  },
  {
    "id": "FR:ang",
    "name": "Angoulême",
    "city": "Angoulême",
    "country": "FR",
    "stopIds": [
      "55"
    ],
    "operators": [
      "TGVMAX"
    ],
    "lat": 45.653572,
    "lon": 0.164608
  },
  {
    "id": "FR:lacanau-ocean",
    "name": "LACANAU OCEAN",
    "city": "LACANAU OCEAN",
    "country": "FR",
    "stopIds": [
      "56"
    ],
    "operators": [
      "TGVMAX"
    ],
    "lat": 0,
    "lon": 0
  },
  {
    "id": "FR:bxj",
    "name": "Bordeaux St-Jean",
    "city": "Bordeaux St-Jean",
    "country": "FR",
    "stopIds": [
      "57"
    ],
    "operators": [
      "TGVMAX"
    ],
    "lat": 44.825873,
    "lon": -0.556697
  },
  {
    "id": "FR:crw",
    "name": "Croix – Wasquehal",
    "city": "Croix – Wasquehal",
    "country": "FR",
    "stopIds": [
      "58"
    ],
    "operators": [
      "TGVMAX"
    ],
    "lat": 50.678557,
    "lon": 3.138032
  },
  {
    "id": "FR:arr",
    "name": "Arras",
    "city": "Arras",
    "country": "FR",
    "stopIds": [
      "59"
    ],
    "operators": [
      "TGVMAX"
    ],
    "lat": 50.286673,
    "lon": 2.781942
  },
  {
    "id": "FR:les-portes-en-re",
    "name": "LES PORTES EN RE",
    "city": "LES PORTES EN RE",
    "country": "FR",
    "stopIds": [
      "60"
    ],
    "operators": [
      "TGVMAX"
    ],
    "lat": 0,
    "lon": 0
  },
  {
    "id": "FR:ste-marie-de-re",
    "name": "STE MARIE DE RE",
    "city": "STE MARIE DE RE",
    "country": "FR",
    "stopIds": [
      "61"
    ],
    "operators": [
      "TGVMAX"
    ],
    "lat": 0,
    "lon": 0
  },
  {
    "id": "FR:rivedoux-plage",
    "name": "RIVEDOUX PLAGE",
    "city": "RIVEDOUX PLAGE",
    "country": "FR",
    "stopIds": [
      "62"
    ],
    "operators": [
      "TGVMAX"
    ],
    "lat": 0,
    "lon": 0
  },
  {
    "id": "FR:st-martin-de-re",
    "name": "ST MARTIN DE RE",
    "city": "ST MARTIN DE RE",
    "country": "FR",
    "stopIds": [
      "63"
    ],
    "operators": [
      "TGVMAX"
    ],
    "lat": 0,
    "lon": 0
  },
  {
    "id": "FR:la-noue",
    "name": "LA NOUE",
    "city": "LA NOUE",
    "country": "FR",
    "stopIds": [
      "64"
    ],
    "operators": [
      "TGVMAX"
    ],
    "lat": 0,
    "lon": 0
  },
  {
    "id": "FR:loix",
    "name": "LOIX",
    "city": "LOIX",
    "country": "FR",
    "stopIds": [
      "65"
    ],
    "operators": [
      "TGVMAX"
    ],
    "lat": 0,
    "lon": 0
  },
  {
    "id": "FR:pierrefitte-sur-aire",
    "name": "PIERREFITTE SUR AIRE",
    "city": "PIERREFITTE SUR AIRE",
    "country": "FR",
    "stopIds": [
      "66"
    ],
    "operators": [
      "TGVMAX"
    ],
    "lat": 0,
    "lon": 0
  },
  {
    "id": "FR:gre",
    "name": "Grenoble",
    "city": "Grenoble",
    "country": "FR",
    "stopIds": [
      "67"
    ],
    "operators": [
      "TGVMAX"
    ],
    "lat": 45.191493,
    "lon": 5.714584
  },
  {
    "id": "FR:sen",
    "name": "St-Étienne Châteaucreux",
    "city": "St-Étienne Châteaucreux",
    "country": "FR",
    "stopIds": [
      "68"
    ],
    "operators": [
      "TGVMAX"
    ],
    "lat": 45.443366,
    "lon": 4.399722
  },
  {
    "id": "FR:sxa",
    "name": "Lyon St-Exupéry TGV",
    "city": "Lyon St-Exupéry TGV",
    "country": "FR",
    "stopIds": [
      "69"
    ],
    "operators": [
      "TGVMAX"
    ],
    "lat": 45.721109,
    "lon": 5.074969
  },
  {
    "id": "FR:mas",
    "name": "Miramas",
    "city": "Miramas",
    "country": "FR",
    "stopIds": [
      "70"
    ],
    "operators": [
      "TGVMAX"
    ],
    "lat": 43.580704,
    "lon": 5.000264
  },
  {
    "id": "FR:mtr",
    "name": "Montélimar",
    "city": "Montélimar",
    "country": "FR",
    "stopIds": [
      "71"
    ],
    "operators": [
      "TGVMAX"
    ],
    "lat": 44.559079,
    "lon": 4.744792
  },
  {
    "id": "FR:avi",
    "name": "Avignon Centre",
    "city": "Avignon Centre",
    "country": "FR",
    "stopIds": [
      "72"
    ],
    "operators": [
      "TGVMAX"
    ],
    "lat": 43.9419,
    "lon": 4.805281
  },
  {
    "id": "FR:oge",
    "name": "Orange",
    "city": "Orange",
    "country": "FR",
    "stopIds": [
      "73"
    ],
    "operators": [
      "TGVMAX"
    ],
    "lat": 44.137304,
    "lon": 4.819594
  },
  {
    "id": "FR:bruxelles-midi",
    "name": "BRUXELLES MIDI",
    "city": "BRUXELLES MIDI",
    "country": "FR",
    "stopIds": [
      "74"
    ],
    "operators": [
      "TGVMAX"
    ],
    "lat": 0,
    "lon": 0
  },
  {
    "id": "FR:mlv",
    "name": "Marne-la-Vallée – Chessy",
    "city": "Marne-la-Vallée – Chessy",
    "country": "FR",
    "stopIds": [
      "75"
    ],
    "operators": [
      "TGVMAX"
    ],
    "lat": 48.869856,
    "lon": 2.78272
  },
  {
    "id": "FR:llf",
    "name": "Lille-Flandres",
    "city": "Lille-Flandres",
    "country": "FR",
    "stopIds": [
      "76"
    ],
    "operators": [
      "TGVMAX"
    ],
    "lat": 50.636577,
    "lon": 3.06987
  },
  {
    "id": "FR:ure",
    "name": "Uzerche",
    "city": "Uzerche",
    "country": "FR",
    "stopIds": [
      "77"
    ],
    "operators": [
      "TGVMAX"
    ],
    "lat": 45.440709,
    "lon": 1.570274
  },
  {
    "id": "FR:lim",
    "name": "Limoges Bénédictins",
    "city": "Limoges Bénédictins",
    "country": "FR",
    "stopIds": [
      "78"
    ],
    "operators": [
      "TGVMAX"
    ],
    "lat": 45.836089,
    "lon": 1.267356
  },
  {
    "id": "FR:blg",
    "name": "Brive-la-Gaillarde",
    "city": "Brive-la-Gaillarde",
    "country": "FR",
    "stopIds": [
      "79"
    ],
    "operators": [
      "TGVMAX"
    ],
    "lat": 45.152618,
    "lon": 1.528655
  },
  {
    "id": "FR:ver",
    "name": "Vierzon",
    "city": "Vierzon",
    "country": "FR",
    "stopIds": [
      "80"
    ],
    "operators": [
      "TGVMAX"
    ],
    "lat": 47.226497,
    "lon": 2.059822
  },
  {
    "id": "FR:agc",
    "name": "Argenton-sur-Creuse",
    "city": "Argenton-sur-Creuse",
    "country": "FR",
    "stopIds": [
      "81"
    ],
    "operators": [
      "TGVMAX"
    ],
    "lat": 46.592248,
    "lon": 1.518305
  },
  {
    "id": "FR:lst",
    "name": "La Souterraine",
    "city": "La Souterraine",
    "country": "FR",
    "stopIds": [
      "82"
    ],
    "operators": [
      "TGVMAX"
    ],
    "lat": 46.239792,
    "lon": 1.492151
  },
  {
    "id": "FR:tgv-haute-picardie",
    "name": "TGV HAUTE PICARDIE",
    "city": "TGV HAUTE PICARDIE",
    "country": "FR",
    "stopIds": [
      "83"
    ],
    "operators": [
      "TGVMAX"
    ],
    "lat": 0,
    "lon": 0
  },
  {
    "id": "FR:bgd",
    "name": "Bellegarde-sur-Valserine",
    "city": "Bellegarde-sur-Valserine",
    "country": "FR",
    "stopIds": [
      "84"
    ],
    "operators": [
      "TGVMAX"
    ],
    "lat": 46.109425,
    "lon": 5.823483
  },
  {
    "id": "FR:bgb",
    "name": "Bourg-en-Bresse",
    "city": "Bourg-en-Bresse",
    "country": "FR",
    "stopIds": [
      "85"
    ],
    "operators": [
      "TGVMAX"
    ],
    "lat": 46.200351,
    "lon": 5.215063
  },
  {
    "id": "FR:offenburg",
    "name": "OFFENBURG",
    "city": "OFFENBURG",
    "country": "FR",
    "stopIds": [
      "86"
    ],
    "operators": [
      "TGVMAX"
    ],
    "lat": 0,
    "lon": 0
  },
  {
    "id": "FR:freiburg-breisgau-hbf",
    "name": "FREIBURG (BREISGAU) HBF",
    "city": "FREIBURG (BREISGAU) HBF",
    "country": "FR",
    "stopIds": [
      "87"
    ],
    "operators": [
      "TGVMAX"
    ],
    "lat": 0,
    "lon": 0
  },
  {
    "id": "FR:ringsheim-europa-park",
    "name": "RINGSHEIM EUROPA PARK",
    "city": "RINGSHEIM EUROPA PARK",
    "country": "FR",
    "stopIds": [
      "88"
    ],
    "operators": [
      "TGVMAX"
    ],
    "lat": 0,
    "lon": 0
  },
  {
    "id": "FR:bld",
    "name": "Bar-le-Duc",
    "city": "Bar-le-Duc",
    "country": "FR",
    "stopIds": [
      "89"
    ],
    "operators": [
      "TGVMAX"
    ],
    "lat": 48.773308,
    "lon": 5.166822
  },
  {
    "id": "FR:lerouville-centre",
    "name": "LEROUVILLE CENTRE",
    "city": "LEROUVILLE CENTRE",
    "country": "FR",
    "stopIds": [
      "90"
    ],
    "operators": [
      "TGVMAX"
    ],
    "lat": 0,
    "lon": 0
  },
  {
    "id": "FR:fresnes-au-mont",
    "name": "FRESNES AU MONT",
    "city": "FRESNES AU MONT",
    "country": "FR",
    "stopIds": [
      "91"
    ],
    "operators": [
      "TGVMAX"
    ],
    "lat": 0,
    "lon": 0
  },
  {
    "id": "FR:lal",
    "name": "Laval",
    "city": "Laval",
    "country": "FR",
    "stopIds": [
      "92"
    ],
    "operators": [
      "TGVMAX"
    ],
    "lat": 48.076206,
    "lon": -0.760907
  },
  {
    "id": "FR:dol",
    "name": "Dol-de-Bretagne",
    "city": "Dol-de-Bretagne",
    "country": "FR",
    "stopIds": [
      "93"
    ],
    "operators": [
      "TGVMAX"
    ],
    "lat": 48.54425,
    "lon": -1.750536
  },
  {
    "id": "FR:mannheim-hbf",
    "name": "MANNHEIM HBF",
    "city": "MANNHEIM HBF",
    "country": "FR",
    "stopIds": [
      "94"
    ],
    "operators": [
      "TGVMAX"
    ],
    "lat": 0,
    "lon": 0
  },
  {
    "id": "FR:frankfurt-am-main-hbf",
    "name": "FRANKFURT AM MAIN HBF",
    "city": "FRANKFURT AM MAIN HBF",
    "country": "FR",
    "stopIds": [
      "95"
    ],
    "operators": [
      "TGVMAX"
    ],
    "lat": 0,
    "lon": 0
  },
  {
    "id": "FR:karlsruhe-hbf",
    "name": "KARLSRUHE HBF",
    "city": "KARLSRUHE HBF",
    "country": "FR",
    "stopIds": [
      "96"
    ],
    "operators": [
      "TGVMAX"
    ],
    "lat": 0,
    "lon": 0
  },
  {
    "id": "FR:sgd",
    "name": "St-Gaudens",
    "city": "St-Gaudens",
    "country": "FR",
    "stopIds": [
      "97"
    ],
    "operators": [
      "TGVMAX"
    ],
    "lat": 43.105034,
    "lon": 0.729104
  },
  {
    "id": "FR:stuttgart-hbf",
    "name": "STUTTGART HBF",
    "city": "STUTTGART HBF",
    "country": "FR",
    "stopIds": [
      "98"
    ],
    "operators": [
      "TGVMAX"
    ],
    "lat": 0,
    "lon": 0
  },
  {
    "id": "FR:clf",
    "name": "Clermont-Ferrand",
    "city": "Clermont-Ferrand",
    "country": "FR",
    "stopIds": [
      "99"
    ],
    "operators": [
      "TGVMAX"
    ],
    "lat": 45.778945,
    "lon": 3.100543
  },
  {
    "id": "FR:rio",
    "name": "Riom – Châtel-Guyon",
    "city": "Riom – Châtel-Guyon",
    "country": "FR",
    "stopIds": [
      "100"
    ],
    "operators": [
      "TGVMAX"
    ],
    "lat": 45.889965,
    "lon": 3.120498
  },
  {
    "id": "FR:msa",
    "name": "Moulins-sur-Allier",
    "city": "Moulins-sur-Allier",
    "country": "FR",
    "stopIds": [
      "101"
    ],
    "operators": [
      "TGVMAX"
    ],
    "lat": 46.561346,
    "lon": 3.338842
  },
  {
    "id": "FR:nvs",
    "name": "Nevers",
    "city": "Nevers",
    "country": "FR",
    "stopIds": [
      "102"
    ],
    "operators": [
      "TGVMAX"
    ],
    "lat": 46.987282,
    "lon": 3.150743
  },
  {
    "id": "FR:gov",
    "name": "Gourdon",
    "city": "Gourdon",
    "country": "FR",
    "stopIds": [
      "103"
    ],
    "operators": [
      "TGVMAX"
    ],
    "lat": 44.741945,
    "lon": 1.389237
  },
  {
    "id": "FR:ctx",
    "name": "Châteauroux",
    "city": "Châteauroux",
    "country": "FR",
    "stopIds": [
      "104"
    ],
    "operators": [
      "TGVMAX"
    ],
    "lat": 46.809737,
    "lon": 1.699536
  },
  {
    "id": "FR:len",
    "name": "Le Mans",
    "city": "Le Mans",
    "country": "FR",
    "stopIds": [
      "105"
    ],
    "operators": [
      "TGVMAX"
    ],
    "lat": 47.995034,
    "lon": 0.19014
  },
  {
    "id": "FR:res",
    "name": "Rennes",
    "city": "Rennes",
    "country": "FR",
    "stopIds": [
      "106"
    ],
    "operators": [
      "TGVMAX"
    ],
    "lat": 48.103517,
    "lon": -1.672744
  },
  {
    "id": "FR:std",
    "name": "Saint-Dié-des-Vosges",
    "city": "Saint-Dié-des-Vosges",
    "country": "FR",
    "stopIds": [
      "107"
    ],
    "operators": [
      "TGVMAX"
    ],
    "lat": 48.282225,
    "lon": 6.948656
  },
  {
    "id": "FR:lne",
    "name": "Lunéville",
    "city": "Lunéville",
    "country": "FR",
    "stopIds": [
      "108"
    ],
    "operators": [
      "TGVMAX"
    ],
    "lat": 48.588233,
    "lon": 6.49727
  },
  {
    "id": "FR:mxr",
    "name": "Morlaix",
    "city": "Morlaix",
    "country": "FR",
    "stopIds": [
      "109"
    ],
    "operators": [
      "TGVMAX"
    ],
    "lat": 48.57797,
    "lon": -3.832514
  },
  {
    "id": "FR:brt",
    "name": "Brest",
    "city": "Brest",
    "country": "FR",
    "stopIds": [
      "110"
    ],
    "operators": [
      "TGVMAX"
    ],
    "lat": 48.38811,
    "lon": -4.478903
  },
  {
    "id": "FR:asl",
    "name": "Angers St-Laud",
    "city": "Angers St-Laud",
    "country": "FR",
    "stopIds": [
      "111"
    ],
    "operators": [
      "TGVMAX"
    ],
    "lat": 47.464647,
    "lon": -0.55682
  },
  {
    "id": "FR:sud",
    "name": "Saumur",
    "city": "Saumur",
    "country": "FR",
    "stopIds": [
      "112"
    ],
    "operators": [
      "TGVMAX"
    ],
    "lat": 47.269,
    "lon": -0.07136
  },
  {
    "id": "FR:sgf",
    "name": "St-Germain-des-Fossés",
    "city": "St-Germain-des-Fossés",
    "country": "FR",
    "stopIds": [
      "113"
    ],
    "operators": [
      "TGVMAX"
    ],
    "lat": 46.209185,
    "lon": 3.430614
  },
  {
    "id": "FR:bgs",
    "name": "Bourges",
    "city": "Bourges",
    "country": "FR",
    "stopIds": [
      "114"
    ],
    "operators": [
      "TGVMAX"
    ],
    "lat": 47.094145,
    "lon": 2.394255
  },
  {
    "id": "FR:roa",
    "name": "Roanne",
    "city": "Roanne",
    "country": "FR",
    "stopIds": [
      "115"
    ],
    "operators": [
      "TGVMAX"
    ],
    "lat": 46.039383,
    "lon": 4.063207
  },
  {
    "id": "FR:augsburg-hbf",
    "name": "AUGSBURG HBF",
    "city": "AUGSBURG HBF",
    "country": "FR",
    "stopIds": [
      "116"
    ],
    "operators": [
      "TGVMAX"
    ],
    "lat": 0,
    "lon": 0
  },
  {
    "id": "FR:ulm-hbf",
    "name": "ULM HBF",
    "city": "ULM HBF",
    "country": "FR",
    "stopIds": [
      "117"
    ],
    "operators": [
      "TGVMAX"
    ],
    "lat": 0,
    "lon": 0
  },
  {
    "id": "FR:agd",
    "name": "Agde",
    "city": "Agde",
    "country": "FR",
    "stopIds": [
      "118"
    ],
    "operators": [
      "TGVMAX"
    ],
    "lat": 43.31728,
    "lon": 3.466203
  },
  {
    "id": "FR:ppn",
    "name": "Perpignan",
    "city": "Perpignan",
    "country": "FR",
    "stopIds": [
      "119"
    ],
    "operators": [
      "TGVMAX"
    ],
    "lat": 42.696292,
    "lon": 2.879779
  },
  {
    "id": "FR:girona",
    "name": "GIRONA",
    "city": "GIRONA",
    "country": "FR",
    "stopIds": [
      "120"
    ],
    "operators": [
      "TGVMAX"
    ],
    "lat": 0,
    "lon": 0
  },
  {
    "id": "FR:figueres-vilafant",
    "name": "FIGUERES VILAFANT",
    "city": "FIGUERES VILAFANT",
    "country": "FR",
    "stopIds": [
      "121"
    ],
    "operators": [
      "TGVMAX"
    ],
    "lat": 0,
    "lon": 0
  },
  {
    "id": "FR:vdn",
    "name": "Verdun",
    "city": "Verdun",
    "country": "FR",
    "stopIds": [
      "122"
    ],
    "operators": [
      "TGVMAX"
    ],
    "lat": 49.165406,
    "lon": 5.379701
  },
  {
    "id": "FR:lausanne",
    "name": "LAUSANNE",
    "city": "LAUSANNE",
    "country": "FR",
    "stopIds": [
      "123"
    ],
    "operators": [
      "TGVMAX"
    ],
    "lat": 0,
    "lon": 0
  },
  {
    "id": "FR:dle",
    "name": "Dole Ville",
    "city": "Dole Ville",
    "country": "FR",
    "stopIds": [
      "124"
    ],
    "operators": [
      "TGVMAX"
    ],
    "lat": 47.096084,
    "lon": 5.488105
  },
  {
    "id": "FR:fra",
    "name": "Frasne",
    "city": "Frasne",
    "country": "FR",
    "stopIds": [
      "125"
    ],
    "operators": [
      "TGVMAX"
    ],
    "lat": 46.857596,
    "lon": 6.157767
  },
  {
    "id": "FR:ryt",
    "name": "Aéroport Paris Roissy Charles de Gaulle CDG T2",
    "city": "Aéroport Paris Roissy Charles de Gaulle CDG T2",
    "country": "FR",
    "stopIds": [
      "126"
    ],
    "operators": [
      "TGVMAX"
    ],
    "lat": 49.003652,
    "lon": 2.570892
  },
  {
    "id": "FR:tgl",
    "name": "Lorraine TGV",
    "city": "Lorraine TGV",
    "country": "FR",
    "stopIds": [
      "127"
    ],
    "operators": [
      "TGVMAX"
    ],
    "lat": 48.947773,
    "lon": 6.169838
  },
  {
    "id": "FR:smx",
    "name": "St-Maixent",
    "city": "St-Maixent",
    "country": "FR",
    "stopIds": [
      "128"
    ],
    "operators": [
      "TGVMAX"
    ],
    "lat": 46.406607,
    "lon": -0.201073
  },
  {
    "id": "FR:pst",
    "name": "Poitiers",
    "city": "Poitiers",
    "country": "FR",
    "stopIds": [
      "129"
    ],
    "operators": [
      "TGVMAX"
    ],
    "lat": 46.582275,
    "lon": 0.333241
  },
  {
    "id": "FR:lcr",
    "name": "Le Creusot",
    "city": "Le Creusot",
    "country": "FR",
    "stopIds": [
      "130"
    ],
    "operators": [
      "TGVMAX"
    ],
    "lat": 46.807815,
    "lon": 4.43044
  },
  {
    "id": "FR:lam",
    "name": "Lamballe",
    "city": "Lamballe",
    "country": "FR",
    "stopIds": [
      "131"
    ],
    "operators": [
      "TGVMAX"
    ],
    "lat": 48.46606,
    "lon": -2.511546
  },
  {
    "id": "FR:sbc",
    "name": "St-Brieuc",
    "city": "St-Brieuc",
    "country": "FR",
    "stopIds": [
      "132"
    ],
    "operators": [
      "TGVMAX"
    ],
    "lat": 48.50758,
    "lon": -2.765
  },
  {
    "id": "FR:ldo",
    "name": "Landerneau",
    "city": "Landerneau",
    "country": "FR",
    "stopIds": [
      "133"
    ],
    "operators": [
      "TGVMAX"
    ],
    "lat": 48.453572,
    "lon": -4.256528
  },
  {
    "id": "FR:plt",
    "name": "Plouaret – Trégor",
    "city": "Plouaret – Trégor",
    "country": "FR",
    "stopIds": [
      "134"
    ],
    "operators": [
      "TGVMAX"
    ],
    "lat": 48.606282,
    "lon": -3.466823
  },
  {
    "id": "FR:ggp",
    "name": "Guingamp",
    "city": "Guingamp",
    "country": "FR",
    "stopIds": [
      "135"
    ],
    "operators": [
      "TGVMAX"
    ],
    "lat": 48.555659,
    "lon": -3.143343
  },
  {
    "id": "FR:mpl",
    "name": "Montpellier St-Roch",
    "city": "Montpellier St-Roch",
    "country": "FR",
    "stopIds": [
      "136"
    ],
    "operators": [
      "TGVMAX"
    ],
    "lat": 43.604738,
    "lon": 3.880674
  },
  {
    "id": "FR:lab",
    "name": "Les Aubrais",
    "city": "Les Aubrais",
    "country": "FR",
    "stopIds": [
      "137"
    ],
    "operators": [
      "TGVMAX"
    ],
    "lat": 47.926801,
    "lon": 1.906629
  },
  {
    "id": "FR:mlx",
    "name": "Mérens-les-Vals",
    "city": "Mérens-les-Vals",
    "country": "FR",
    "stopIds": [
      "138"
    ],
    "operators": [
      "TGVMAX"
    ],
    "lat": 42.659488,
    "lon": 1.837128
  },
  {
    "id": "FR:pms",
    "name": "Pamiers",
    "city": "Pamiers",
    "country": "FR",
    "stopIds": [
      "139"
    ],
    "operators": [
      "TGVMAX"
    ],
    "lat": 43.116207,
    "lon": 1.619451
  },
  {
    "id": "FR:srn",
    "name": "Saverdun",
    "city": "Saverdun",
    "country": "FR",
    "stopIds": [
      "140"
    ],
    "operators": [
      "TGVMAX"
    ],
    "lat": 43.239357,
    "lon": 1.570616
  },
  {
    "id": "FR:aie",
    "name": "Auterive (Haute Garonne)",
    "city": "Auterive (Haute Garonne)",
    "country": "FR",
    "stopIds": [
      "141"
    ],
    "operators": [
      "TGVMAX"
    ],
    "lat": 43.348993,
    "lon": 1.468831
  },
  {
    "id": "FR:sna",
    "name": "St-Nazaire",
    "city": "St-Nazaire",
    "country": "FR",
    "stopIds": [
      "142"
    ],
    "operators": [
      "TGVMAX"
    ],
    "lat": 47.286412,
    "lon": -2.211096
  },
  {
    "id": "FR:lig",
    "name": "Le Pouliguen",
    "city": "Le Pouliguen",
    "country": "FR",
    "stopIds": [
      "143"
    ],
    "operators": [
      "TGVMAX"
    ],
    "lat": 47.28254,
    "lon": -2.433145
  },
  {
    "id": "FR:pni",
    "name": "Pornichet",
    "city": "Pornichet",
    "country": "FR",
    "stopIds": [
      "144"
    ],
    "operators": [
      "TGVMAX"
    ],
    "lat": 47.270535,
    "lon": -2.344577
  },
  {
    "id": "FR:lbe",
    "name": "La Baule-Escoublac",
    "city": "La Baule-Escoublac",
    "country": "FR",
    "stopIds": [
      "145"
    ],
    "operators": [
      "TGVMAX"
    ],
    "lat": 47.28869,
    "lon": -2.389102
  },
  {
    "id": "FR:biganos-facture",
    "name": "BIGANOS FACTURE",
    "city": "BIGANOS FACTURE",
    "country": "FR",
    "stopIds": [
      "146"
    ],
    "operators": [
      "TGVMAX"
    ],
    "lat": 0,
    "lon": 0
  },
  {
    "id": "FR:arc",
    "name": "Arcachon",
    "city": "Arcachon",
    "country": "FR",
    "stopIds": [
      "147"
    ],
    "operators": [
      "TGVMAX"
    ],
    "lat": 44.659009,
    "lon": -1.16523
  },
  {
    "id": "FR:lry",
    "name": "La Roche-sur-Yon",
    "city": "La Roche-sur-Yon",
    "country": "FR",
    "stopIds": [
      "148"
    ],
    "operators": [
      "TGVMAX"
    ],
    "lat": 46.67212,
    "lon": -1.435621
  },
  {
    "id": "FR:skw",
    "name": "Saintes",
    "city": "Saintes",
    "country": "FR",
    "stopIds": [
      "149"
    ],
    "operators": [
      "TGVMAX"
    ],
    "lat": 45.74874,
    "lon": -0.6179
  },
  {
    "id": "FR:lrk",
    "name": "Luçon",
    "city": "Luçon",
    "country": "FR",
    "stopIds": [
      "150"
    ],
    "operators": [
      "TGVMAX"
    ],
    "lat": 46.463823,
    "lon": -1.167422
  },
  {
    "id": "FR:rct",
    "name": "Rochefort",
    "city": "Rochefort",
    "country": "FR",
    "stopIds": [
      "151"
    ],
    "operators": [
      "TGVMAX"
    ],
    "lat": 45.947189,
    "lon": -0.963556
  },
  {
    "id": "FR:dax",
    "name": "Dax",
    "city": "Dax",
    "country": "FR",
    "stopIds": [
      "152"
    ],
    "operators": [
      "TGVMAX"
    ],
    "lat": 43.720472,
    "lon": -1.050301
  },
  {
    "id": "FR:cox",
    "name": "Collioure",
    "city": "Collioure",
    "country": "FR",
    "stopIds": [
      "153"
    ],
    "operators": [
      "TGVMAX"
    ],
    "lat": 42.526944,
    "lon": 3.078232
  },
  {
    "id": "FR:qpl",
    "name": "Quimperlé",
    "city": "Quimperlé",
    "country": "FR",
    "stopIds": [
      "154"
    ],
    "operators": [
      "TGVMAX"
    ],
    "lat": 47.869375,
    "lon": -3.552693
  },
  {
    "id": "FR:qpr",
    "name": "Quimper",
    "city": "Quimper",
    "country": "FR",
    "stopIds": [
      "155"
    ],
    "operators": [
      "TGVMAX"
    ],
    "lat": 47.994455,
    "lon": -4.092103
  },
  {
    "id": "FR:lrt",
    "name": "Lorient",
    "city": "Lorient",
    "country": "FR",
    "stopIds": [
      "156"
    ],
    "operators": [
      "TGVMAX"
    ],
    "lat": 47.755597,
    "lon": -3.366221
  },
  {
    "id": "FR:rsp",
    "name": "Rosporden",
    "city": "Rosporden",
    "country": "FR",
    "stopIds": [
      "157"
    ],
    "operators": [
      "TGVMAX"
    ],
    "lat": 47.960273,
    "lon": -3.832763
  },
  {
    "id": "FR:vhy",
    "name": "Vichy",
    "city": "Vichy",
    "country": "FR",
    "stopIds": [
      "158"
    ],
    "operators": [
      "TGVMAX"
    ],
    "lat": 46.126979,
    "lon": 3.430448
  },
  {
    "id": "FR:geneve-cornavin",
    "name": "GENEVE CORNAVIN",
    "city": "GENEVE CORNAVIN",
    "country": "FR",
    "stopIds": [
      "159"
    ],
    "operators": [
      "TGVMAX"
    ],
    "lat": 0,
    "lon": 0
  },
  {
    "id": "FR:mze",
    "name": "Metz",
    "city": "Metz",
    "country": "FR",
    "stopIds": [
      "160"
    ],
    "operators": [
      "TGVMAX"
    ],
    "lat": 49.109545,
    "lon": 6.176593
  },
  {
    "id": "FR:luxembourg",
    "name": "LUXEMBOURG",
    "city": "LUXEMBOURG",
    "country": "FR",
    "stopIds": [
      "161"
    ],
    "operators": [
      "TGVMAX"
    ],
    "lat": 0,
    "lon": 0
  },
  {
    "id": "FR:agn",
    "name": "Agen",
    "city": "Agen",
    "country": "FR",
    "stopIds": [
      "162"
    ],
    "operators": [
      "TGVMAX"
    ],
    "lat": 44.208311,
    "lon": 0.620932
  },
  {
    "id": "FR:mbn",
    "name": "Montauban Ville Bourbon",
    "city": "Montauban Ville Bourbon",
    "country": "FR",
    "stopIds": [
      "163"
    ],
    "operators": [
      "TGVMAX"
    ],
    "lat": 44.014387,
    "lon": 1.341496
  },
  {
    "id": "FR:vyf",
    "name": "Vitry-le-François",
    "city": "Vitry-le-François",
    "country": "FR",
    "stopIds": [
      "164"
    ],
    "operators": [
      "TGVMAX"
    ],
    "lat": 48.718142,
    "lon": 4.587581
  },
  {
    "id": "FR:cmp",
    "name": "Châlons-en-Champagne",
    "city": "Châlons-en-Champagne",
    "country": "FR",
    "stopIds": [
      "165"
    ],
    "operators": [
      "TGVMAX"
    ],
    "lat": 48.955252,
    "lon": 4.348656
  },
  {
    "id": "FR:van",
    "name": "Vannes",
    "city": "Vannes",
    "country": "FR",
    "stopIds": [
      "166"
    ],
    "operators": [
      "TGVMAX"
    ],
    "lat": 47.665169,
    "lon": -2.75245
  },
  {
    "id": "FR:rdn",
    "name": "Redon",
    "city": "Redon",
    "country": "FR",
    "stopIds": [
      "167"
    ],
    "operators": [
      "TGVMAX"
    ],
    "lat": 47.652004,
    "lon": -2.08777
  },
  {
    "id": "FR:ary",
    "name": "Auray",
    "city": "Auray",
    "country": "FR",
    "stopIds": [
      "168"
    ],
    "operators": [
      "TGVMAX"
    ],
    "lat": 47.68022,
    "lon": -2.999995
  },
  {
    "id": "FR:joh",
    "name": "Jonzac",
    "city": "Jonzac",
    "country": "FR",
    "stopIds": [
      "169"
    ],
    "operators": [
      "TGVMAX"
    ],
    "lat": 45.438746,
    "lon": -0.44164
  },
  {
    "id": "FR:munchen-hbf",
    "name": "MUNCHEN HBF",
    "city": "MUNCHEN HBF",
    "country": "FR",
    "stopIds": [
      "170"
    ],
    "operators": [
      "TGVMAX"
    ],
    "lat": 0,
    "lon": 0
  },
  {
    "id": "FR:barcelona-sants",
    "name": "BARCELONA SANTS",
    "city": "BARCELONA SANTS",
    "country": "FR",
    "stopIds": [
      "171"
    ],
    "operators": [
      "TGVMAX"
    ],
    "lat": 0,
    "lon": 0
  },
  {
    "id": "FR:vallorbe",
    "name": "VALLORBE",
    "city": "VALLORBE",
    "country": "FR",
    "stopIds": [
      "172"
    ],
    "operators": [
      "TGVMAX"
    ],
    "lat": 0,
    "lon": 0
  },
  {
    "id": "FR:mcd",
    "name": "Mouchard",
    "city": "Mouchard",
    "country": "FR",
    "stopIds": [
      "173"
    ],
    "operators": [
      "TGVMAX"
    ],
    "lat": 46.976911,
    "lon": 5.799644
  },
  {
    "id": "FR:sampigny-centre",
    "name": "SAMPIGNY CENTRE",
    "city": "SAMPIGNY CENTRE",
    "country": "FR",
    "stopIds": [
      "174"
    ],
    "operators": [
      "TGVMAX"
    ],
    "lat": 0,
    "lon": 0
  },
  {
    "id": "FR:rap",
    "name": "Rocamadour – Padirac",
    "city": "Rocamadour – Padirac",
    "country": "FR",
    "stopIds": [
      "175"
    ],
    "operators": [
      "TGVMAX"
    ],
    "lat": 44.818356,
    "lon": 1.657349
  },
  {
    "id": "FR:vzi",
    "name": "Viviez – Decazeville",
    "city": "Viviez – Decazeville",
    "country": "FR",
    "stopIds": [
      "176"
    ],
    "operators": [
      "TGVMAX"
    ],
    "lat": 44.555568,
    "lon": 2.218258
  },
  {
    "id": "FR:ams",
    "name": "Amiens",
    "city": "Amiens",
    "country": "FR",
    "stopIds": [
      "177"
    ],
    "operators": [
      "TGVMAX"
    ],
    "lat": 49.890746,
    "lon": 2.312592
  },
  {
    "id": "FR:sne",
    "name": "Saverne",
    "city": "Saverne",
    "country": "FR",
    "stopIds": [
      "178"
    ],
    "operators": [
      "TGVMAX"
    ],
    "lat": 48.744461,
    "lon": 7.36208
  },
  {
    "id": "FR:sou",
    "name": "Souillac",
    "city": "Souillac",
    "country": "FR",
    "stopIds": [
      "179"
    ],
    "operators": [
      "TGVMAX"
    ],
    "lat": 44.902127,
    "lon": 1.466605
  },
  {
    "id": "FR:cah",
    "name": "Cahors",
    "city": "Cahors",
    "country": "FR",
    "stopIds": [
      "180"
    ],
    "operators": [
      "TGVMAX"
    ],
    "lat": 44.449275,
    "lon": 1.433325
  },
  {
    "id": "FR:ccy",
    "name": "Commercy",
    "city": "Commercy",
    "country": "FR",
    "stopIds": [
      "181"
    ],
    "operators": [
      "TGVMAX"
    ],
    "lat": 48.765749,
    "lon": 5.58861
  },
  {
    "id": "FR:crl",
    "name": "Chambéry Challes-les-Eaux",
    "city": "Chambéry Challes-les-Eaux",
    "country": "FR",
    "stopIds": [
      "182"
    ],
    "operators": [
      "TGVMAX"
    ],
    "lat": 45.571302,
    "lon": 5.919547
  },
  {
    "id": "FR:mlh",
    "name": "Mâcon – Loché TGV",
    "city": "Mâcon – Loché TGV",
    "country": "FR",
    "stopIds": [
      "183"
    ],
    "operators": [
      "TGVMAX"
    ],
    "lat": 46.282884,
    "lon": 4.778876
  },
  {
    "id": "FR:any",
    "name": "Annecy",
    "city": "Annecy",
    "country": "FR",
    "stopIds": [
      "184"
    ],
    "operators": [
      "TGVMAX"
    ],
    "lat": 45.901965,
    "lon": 6.121835
  },
  {
    "id": "FR:souilly",
    "name": "SOUILLY",
    "city": "SOUILLY",
    "country": "FR",
    "stopIds": [
      "185"
    ],
    "operators": [
      "TGVMAX"
    ],
    "lat": 0,
    "lon": 0
  },
  {
    "id": "FR:vdm",
    "name": "Vendôme",
    "city": "Vendôme",
    "country": "FR",
    "stopIds": [
      "186"
    ],
    "operators": [
      "TGVMAX"
    ],
    "lat": 47.80215,
    "lon": 1.067873
  },
  {
    "id": "FR:crt",
    "name": "Châtellerault",
    "city": "Châtellerault",
    "country": "FR",
    "stopIds": [
      "187"
    ],
    "operators": [
      "TGVMAX"
    ],
    "lat": 46.818594,
    "lon": 0.549279
  },
  {
    "id": "FR:vte",
    "name": "Vitré",
    "city": "Vitré",
    "country": "FR",
    "stopIds": [
      "188"
    ],
    "operators": [
      "TGVMAX"
    ],
    "lat": 48.122671,
    "lon": -1.211754
  },
  {
    "id": "FR:vsn",
    "name": "Valenciennes",
    "city": "Valenciennes",
    "country": "FR",
    "stopIds": [
      "189"
    ],
    "operators": [
      "TGVMAX"
    ],
    "lat": 50.363259,
    "lon": 3.517115
  },
  {
    "id": "FR:mbc",
    "name": "Marseille Blancarde",
    "city": "Marseille Blancarde",
    "country": "FR",
    "stopIds": [
      "190"
    ],
    "operators": [
      "TGVMAX"
    ],
    "lat": 43.296144,
    "lon": 5.406559
  },
  {
    "id": "FR:mtj",
    "name": "Montréjeau – Gourdan-Polignan",
    "city": "Montréjeau – Gourdan-Polignan",
    "country": "FR",
    "stopIds": [
      "191"
    ],
    "operators": [
      "TGVMAX"
    ],
    "lat": 43.078109,
    "lon": 0.5735
  },
  {
    "id": "FR:ars",
    "name": "Arles",
    "city": "Arles",
    "country": "FR",
    "stopIds": [
      "192"
    ],
    "operators": [
      "TGVMAX"
    ],
    "lat": 43.684853,
    "lon": 4.63203
  },
  {
    "id": "FR:mmd",
    "name": "Marmande",
    "city": "Marmande",
    "country": "FR",
    "stopIds": [
      "193"
    ],
    "operators": [
      "TGVMAX"
    ],
    "lat": 44.503019,
    "lon": 0.168044
  },
  {
    "id": "FR:thl",
    "name": "Thionville",
    "city": "Thionville",
    "country": "FR",
    "stopIds": [
      "194"
    ],
    "operators": [
      "TGVMAX"
    ],
    "lat": 49.353931,
    "lon": 6.169543
  },
  {
    "id": "FR:cyn",
    "name": "Culmont-Chalindrey",
    "city": "Culmont-Chalindrey",
    "country": "FR",
    "stopIds": [
      "195"
    ],
    "operators": [
      "TGVMAX"
    ],
    "lat": 47.81009,
    "lon": 5.443222
  },
  {
    "id": "FR:nch",
    "name": "Neufchâteau",
    "city": "Neufchâteau",
    "country": "FR",
    "stopIds": [
      "196"
    ],
    "operators": [
      "TGVMAX"
    ],
    "lat": 48.358343,
    "lon": 5.690402
  },
  {
    "id": "FR:tol",
    "name": "Toul",
    "city": "Toul",
    "country": "FR",
    "stopIds": [
      "197"
    ],
    "operators": [
      "TGVMAX"
    ],
    "lat": 48.679018,
    "lon": 5.880615
  },
  {
    "id": "FR:css",
    "name": "Chalon-sur-Saône",
    "city": "Chalon-sur-Saône",
    "country": "FR",
    "stopIds": [
      "198"
    ],
    "operators": [
      "TGVMAX"
    ],
    "lat": 46.781612,
    "lon": 4.843454
  },
  {
    "id": "FR:rsn",
    "name": "Reims Maison Blanche",
    "city": "Reims Maison Blanche",
    "country": "FR",
    "stopIds": [
      "199"
    ],
    "operators": [
      "TGVMAX"
    ],
    "lat": 49.233685,
    "lon": 4.022493
  },
  {
    "id": "FR:lso",
    "name": "Les Sables-d’Olonne",
    "city": "Les Sables-d’Olonne",
    "country": "FR",
    "stopIds": [
      "200"
    ],
    "operators": [
      "TGVMAX"
    ],
    "lat": 46.499917,
    "lon": -1.78105
  },
  {
    "id": "FR:sih",
    "name": "St-Christophe",
    "city": "St-Christophe",
    "country": "FR",
    "stopIds": [
      "201"
    ],
    "operators": [
      "TGVMAX"
    ],
    "lat": 44.464619,
    "lon": 2.407759
  },
  {
    "id": "FR:smp",
    "name": "St-Malo",
    "city": "St-Malo",
    "country": "FR",
    "stopIds": [
      "202"
    ],
    "operators": [
      "TGVMAX"
    ],
    "lat": 48.646859,
    "lon": -2.004158
  },
  {
    "id": "FR:rtl",
    "name": "Rethel",
    "city": "Rethel",
    "country": "FR",
    "stopIds": [
      "203"
    ],
    "operators": [
      "TGVMAX"
    ],
    "lat": 49.504393,
    "lon": 4.369566
  },
  {
    "id": "FR:cmz",
    "name": "Charleville-Mézières",
    "city": "Charleville-Mézières",
    "country": "FR",
    "stopIds": [
      "204"
    ],
    "operators": [
      "TGVMAX"
    ],
    "lat": 49.767915,
    "lon": 4.724952
  },
  {
    "id": "FR:hzk",
    "name": "Hazebrouck",
    "city": "Hazebrouck",
    "country": "FR",
    "stopIds": [
      "205"
    ],
    "operators": [
      "TGVMAX"
    ],
    "lat": 50.72501,
    "lon": 2.54129
  },
  {
    "id": "FR:isk",
    "name": "Issoudun",
    "city": "Issoudun",
    "country": "FR",
    "stopIds": [
      "206"
    ],
    "operators": [
      "TGVMAX"
    ],
    "lat": 46.948763,
    "lon": 1.985834
  },
  {
    "id": "FR:cho",
    "name": "Chorges",
    "city": "Chorges",
    "country": "FR",
    "stopIds": [
      "207"
    ],
    "operators": [
      "TGVMAX"
    ],
    "lat": 44.545842,
    "lon": 6.271889
  },
  {
    "id": "FR:fxe",
    "name": "Foix",
    "city": "Foix",
    "country": "FR",
    "stopIds": [
      "208"
    ],
    "operators": [
      "TGVMAX"
    ],
    "lat": 42.969746,
    "lon": 1.607147
  },
  {
    "id": "FR:ltl",
    "name": "Latour-de-Carol – Enveitg",
    "city": "Latour-de-Carol – Enveitg",
    "country": "FR",
    "stopIds": [
      "209"
    ],
    "operators": [
      "TGVMAX"
    ],
    "lat": 42.459046,
    "lon": 1.904503
  },
  {
    "id": "FR:lug",
    "name": "Luzenac – Garanou",
    "city": "Luzenac – Garanou",
    "country": "FR",
    "stopIds": [
      "210"
    ],
    "operators": [
      "TGVMAX"
    ],
    "lat": 42.764285,
    "lon": 1.753125
  },
  {
    "id": "FR:sab",
    "name": "Sablé-sur-Sarthe",
    "city": "Sablé-sur-Sarthe",
    "country": "FR",
    "stopIds": [
      "211"
    ],
    "operators": [
      "TGVMAX"
    ],
    "lat": 47.841593,
    "lon": -0.341936
  },
  {
    "id": "FR:elp",
    "name": "Épinal",
    "city": "Épinal",
    "country": "FR",
    "stopIds": [
      "212"
    ],
    "operators": [
      "TGVMAX"
    ],
    "lat": 48.178005,
    "lon": 6.441787
  },
  {
    "id": "FR:rmt",
    "name": "Remiremont",
    "city": "Remiremont",
    "country": "FR",
    "stopIds": [
      "213"
    ],
    "operators": [
      "TGVMAX"
    ],
    "lat": 48.016363,
    "lon": 6.598855
  },
  {
    "id": "FR:zurich-hb",
    "name": "ZURICH HB",
    "city": "ZURICH HB",
    "country": "FR",
    "stopIds": [
      "214"
    ],
    "operators": [
      "TGVMAX"
    ],
    "lat": 0,
    "lon": 0
  },
  {
    "id": "FR:bxb",
    "name": "Bretenoux – Biars",
    "city": "Bretenoux – Biars",
    "country": "FR",
    "stopIds": [
      "215"
    ],
    "operators": [
      "TGVMAX"
    ],
    "lat": 44.927369,
    "lon": 1.843687
  },
  {
    "id": "FR:kaiserslautern-hbf",
    "name": "KAISERSLAUTERN HBF",
    "city": "KAISERSLAUTERN HBF",
    "country": "FR",
    "stopIds": [
      "216"
    ],
    "operators": [
      "TGVMAX"
    ],
    "lat": 0,
    "lon": 0
  },
  {
    "id": "FR:fob",
    "name": "Forbach",
    "city": "Forbach",
    "country": "FR",
    "stopIds": [
      "217"
    ],
    "operators": [
      "TGVMAX"
    ],
    "lat": 49.189228,
    "lon": 6.901318
  },
  {
    "id": "FR:saarbruecken-sarrebruck",
    "name": "SAARBRUECKEN/SARREBRUCK",
    "city": "SAARBRUECKEN/SARREBRUCK",
    "country": "FR",
    "stopIds": [
      "218"
    ],
    "operators": [
      "TGVMAX"
    ],
    "lat": 0,
    "lon": 0
  },
  {
    "id": "FR:baden-baden",
    "name": "BADEN BADEN",
    "city": "BADEN BADEN",
    "country": "FR",
    "stopIds": [
      "219"
    ],
    "operators": [
      "TGVMAX"
    ],
    "lat": 0,
    "lon": 0
  },
  {
    "id": "FR:csd",
    "name": "Caussade (Tarn-et-Garonne)",
    "city": "Caussade (Tarn-et-Garonne)",
    "country": "FR",
    "stopIds": [
      "220"
    ],
    "operators": [
      "TGVMAX"
    ],
    "lat": 44.162267,
    "lon": 1.533654
  },
  {
    "id": "FR:sqt",
    "name": "St-Quentin",
    "city": "St-Quentin",
    "country": "FR",
    "stopIds": [
      "221"
    ],
    "operators": [
      "TGVMAX"
    ],
    "lat": 49.840048,
    "lon": 3.297009
  },
  {
    "id": "FR:doi",
    "name": "Douai",
    "city": "Douai",
    "country": "FR",
    "stopIds": [
      "222"
    ],
    "operators": [
      "TGVMAX"
    ],
    "lat": 50.371677,
    "lon": 3.089986
  },
  {
    "id": "FR:bnv",
    "name": "Besançon Viotte",
    "city": "Besançon Viotte",
    "country": "FR",
    "stopIds": [
      "223"
    ],
    "operators": [
      "TGVMAX"
    ],
    "lat": 47.247019,
    "lon": 6.022003
  },
  {
    "id": "FR:mod",
    "name": "Modane",
    "city": "Modane",
    "country": "FR",
    "stopIds": [
      "224"
    ],
    "operators": [
      "TGVMAX"
    ],
    "lat": 45.193365,
    "lon": 6.658161
  },
  {
    "id": "FR:oux-cesana-clav-sestriere",
    "name": "OUX CESANA CLAV SESTRIERE",
    "city": "OUX CESANA CLAV SESTRIERE",
    "country": "FR",
    "stopIds": [
      "225"
    ],
    "operators": [
      "TGVMAX"
    ],
    "lat": 0,
    "lon": 0
  },
  {
    "id": "FR:torino-porta-susa",
    "name": "TORINO PORTA SUSA",
    "city": "TORINO PORTA SUSA",
    "country": "FR",
    "stopIds": [
      "226"
    ],
    "operators": [
      "TGVMAX"
    ],
    "lat": 0,
    "lon": 0
  },
  {
    "id": "FR:sjm",
    "name": "St-Jean-de-Maurienne – Arvan",
    "city": "St-Jean-de-Maurienne – Arvan",
    "country": "FR",
    "stopIds": [
      "227"
    ],
    "operators": [
      "TGVMAX"
    ],
    "lat": 45.277542,
    "lon": 6.354716
  },
  {
    "id": "FR:milano-porta-garibaldi",
    "name": "MILANO PORTA GARIBALDI",
    "city": "MILANO PORTA GARIBALDI",
    "country": "FR",
    "stopIds": [
      "228"
    ],
    "operators": [
      "TGVMAX"
    ],
    "lat": 0,
    "lon": 0
  },
  {
    "id": "FR:ftu",
    "name": "Futuroscope",
    "city": "Futuroscope",
    "country": "FR",
    "stopIds": [
      "229"
    ],
    "operators": [
      "TGVMAX"
    ],
    "lat": 46.669918,
    "lon": 0.377209
  },
  {
    "id": "FR:mba",
    "name": "Montbard",
    "city": "Montbard",
    "country": "FR",
    "stopIds": [
      "230"
    ],
    "operators": [
      "TGVMAX"
    ],
    "lat": 47.618747,
    "lon": 4.33616
  },
  {
    "id": "FR:blo",
    "name": "Blois – Chambord",
    "city": "Blois – Chambord",
    "country": "FR",
    "stopIds": [
      "231"
    ],
    "operators": [
      "TGVMAX"
    ],
    "lat": 47.585445,
    "lon": 1.323823
  },
  {
    "id": "FR:jys",
    "name": "Juvisy",
    "city": "Juvisy",
    "country": "FR",
    "stopIds": [
      "232"
    ],
    "operators": [
      "TGVMAX"
    ],
    "lat": 48.68917,
    "lon": 2.38267
  },
  {
    "id": "FR:mpu",
    "name": "Massy – Palaiseau",
    "city": "Massy – Palaiseau",
    "country": "FR",
    "stopIds": [
      "233"
    ],
    "operators": [
      "TGVMAX"
    ],
    "lat": 48.726421,
    "lon": 2.257528
  },
  {
    "id": "FR:vcr",
    "name": "Versailles-Chantiers",
    "city": "Versailles-Chantiers",
    "country": "FR",
    "stopIds": [
      "234"
    ],
    "operators": [
      "TGVMAX"
    ],
    "lat": 48.795826,
    "lon": 2.135883
  },
  {
    "id": "FR:chh",
    "name": "Chartres",
    "city": "Chartres",
    "country": "FR",
    "stopIds": [
      "235"
    ],
    "operators": [
      "TGVMAX"
    ],
    "lat": 48.448202,
    "lon": 1.481313
  },
  {
    "id": "FR:trg",
    "name": "Tourcoing",
    "city": "Tourcoing",
    "country": "FR",
    "stopIds": [
      "236"
    ],
    "operators": [
      "TGVMAX"
    ],
    "lat": 50.71683,
    "lon": 3.16804
  },
  {
    "id": "FR:angoula-me",
    "name": "ANGOULAME",
    "city": "ANGOULAME",
    "country": "FR",
    "stopIds": [
      "237"
    ],
    "operators": [
      "TGVMAX"
    ],
    "lat": 0,
    "lon": 0
  },
  {
    "id": "FR:blm",
    "name": "Brassac-les-Mines – Ste-Florine",
    "city": "Brassac-les-Mines – Ste-Florine",
    "country": "FR",
    "stopIds": [
      "238"
    ],
    "operators": [
      "TGVMAX"
    ],
    "lat": 45.414246,
    "lon": 3.330167
  },
  {
    "id": "FR:iss",
    "name": "Issoire",
    "city": "Issoire",
    "country": "FR",
    "stopIds": [
      "239"
    ],
    "operators": [
      "TGVMAX"
    ],
    "lat": 45.543884,
    "lon": 3.25398
  },
  {
    "id": "FR:arv",
    "name": "Arvant",
    "city": "Arvant",
    "country": "FR",
    "stopIds": [
      "240"
    ],
    "operators": [
      "TGVMAX"
    ],
    "lat": 45.36538,
    "lon": 3.310675
  },
  {
    "id": "FR:mia",
    "name": "Massiac-Blesle",
    "city": "Massiac-Blesle",
    "country": "FR",
    "stopIds": [
      "241"
    ],
    "operators": [
      "TGVMAX"
    ],
    "lat": 45.25377,
    "lon": 3.196552
  },
  {
    "id": "FR:mau",
    "name": "Millau",
    "city": "Millau",
    "country": "FR",
    "stopIds": [
      "242"
    ],
    "operators": [
      "TGVMAX"
    ],
    "lat": 44.102344,
    "lon": 3.07457
  },
  {
    "id": "FR:sdu",
    "name": "St-Georges-de-Luzençon",
    "city": "St-Georges-de-Luzençon",
    "country": "FR",
    "stopIds": [
      "243"
    ],
    "operators": [
      "TGVMAX"
    ],
    "lat": 44.066553,
    "lon": 2.983784
  },
  {
    "id": "FR:neu",
    "name": "Neussargues",
    "city": "Neussargues",
    "country": "FR",
    "stopIds": [
      "244"
    ],
    "operators": [
      "TGVMAX"
    ],
    "lat": 45.125304,
    "lon": 2.979187
  },
  {
    "id": "FR:bed",
    "name": "Bédarieux",
    "city": "Bédarieux",
    "country": "FR",
    "stopIds": [
      "245"
    ],
    "operators": [
      "TGVMAX"
    ],
    "lat": 43.608697,
    "lon": 3.149569
  },
  {
    "id": "FR:sfc",
    "name": "St-Flour – Chaudes-Aigues",
    "city": "St-Flour – Chaudes-Aigues",
    "country": "FR",
    "stopIds": [
      "246"
    ],
    "operators": [
      "TGVMAX"
    ],
    "lat": 45.035012,
    "lon": 3.106286
  },
  {
    "id": "FR:mvj",
    "name": "Marvejols",
    "city": "Marvejols",
    "country": "FR",
    "stopIds": [
      "247"
    ],
    "operators": [
      "TGVMAX"
    ],
    "lat": 44.544682,
    "lon": 3.281072
  },
  {
    "id": "FR:baa",
    "name": "Banassac – La Canourgue",
    "city": "Banassac – La Canourgue",
    "country": "FR",
    "stopIds": [
      "248"
    ],
    "operators": [
      "TGVMAX"
    ],
    "lat": 44.447763,
    "lon": 3.195852
  },
  {
    "id": "FR:lbd",
    "name": "Le Bousquet-d’Orb",
    "city": "Le Bousquet-d’Orb",
    "country": "FR",
    "stopIds": [
      "249"
    ],
    "operators": [
      "TGVMAX"
    ],
    "lat": 43.69121,
    "lon": 3.168938
  },
  {
    "id": "FR:coq",
    "name": "Ceilhes – Roqueredonde",
    "city": "Ceilhes – Roqueredonde",
    "country": "FR",
    "stopIds": [
      "250"
    ],
    "operators": [
      "TGVMAX"
    ],
    "lat": 43.812266,
    "lon": 3.155158
  },
  {
    "id": "FR:syh",
    "name": "St-Chély-d’Apcher",
    "city": "St-Chély-d’Apcher",
    "country": "FR",
    "stopIds": [
      "251"
    ],
    "operators": [
      "TGVMAX"
    ],
    "lat": 44.801738,
    "lon": 3.27069
  },
  {
    "id": "FR:mga",
    "name": "Magalas",
    "city": "Magalas",
    "country": "FR",
    "stopIds": [
      "252"
    ],
    "operators": [
      "TGVMAX"
    ],
    "lat": 43.4676,
    "lon": 3.229542
  },
  {
    "id": "FR:sdo",
    "name": "St-Rome-de-Cernon",
    "city": "St-Rome-de-Cernon",
    "country": "FR",
    "stopIds": [
      "253"
    ],
    "operators": [
      "TGVMAX"
    ],
    "lat": 44.013981,
    "lon": 2.967374
  },
  {
    "id": "FR:cnt",
    "name": "Campagnac – St-Geniez",
    "city": "Campagnac – St-Geniez",
    "country": "FR",
    "stopIds": [
      "254"
    ],
    "operators": [
      "TGVMAX"
    ],
    "lat": 44.421956,
    "lon": 3.066401
  },
  {
    "id": "FR:svc",
    "name": "Séverac-le-Château",
    "city": "Séverac-le-Château",
    "country": "FR",
    "stopIds": [
      "255"
    ],
    "operators": [
      "TGVMAX"
    ],
    "lat": 44.324652,
    "lon": 3.056945
  },
  {
    "id": "FR:aau",
    "name": "Aumont-Aubrac",
    "city": "Aumont-Aubrac",
    "country": "FR",
    "stopIds": [
      "256"
    ],
    "operators": [
      "TGVMAX"
    ],
    "lat": 44.71817,
    "lon": 3.283549
  },
  {
    "id": "FR:teo",
    "name": "Tournemire – Roquefort",
    "city": "Tournemire – Roquefort",
    "country": "FR",
    "stopIds": [
      "257"
    ],
    "operators": [
      "TGVMAX"
    ],
    "lat": 43.9698,
    "lon": 3.016626
  },
  {
    "id": "FR:lmr",
    "name": "Le Monastier",
    "city": "Le Monastier",
    "country": "FR",
    "stopIds": [
      "258"
    ],
    "operators": [
      "TGVMAX"
    ],
    "lat": 44.508968,
    "lon": 3.252057
  },
  {
    "id": "FR:nex",
    "name": "Nurieux",
    "city": "Nurieux",
    "country": "FR",
    "stopIds": [
      "259"
    ],
    "operators": [
      "TGVMAX"
    ],
    "lat": 46.18422,
    "lon": 5.532749
  },
  {
    "id": "FR:aix",
    "name": "Aix-les-Bains – Le Revard",
    "city": "Aix-les-Bains – Le Revard",
    "country": "FR",
    "stopIds": [
      "260"
    ],
    "operators": [
      "TGVMAX"
    ],
    "lat": 45.688161,
    "lon": 5.909371
  },
  {
    "id": "FR:sgb",
    "name": "St-Gervais-les-Bains – Le Fayet",
    "city": "St-Gervais-les-Bains – Le Fayet",
    "country": "FR",
    "stopIds": [
      "261"
    ],
    "operators": [
      "TGVMAX"
    ],
    "lat": 45.906423,
    "lon": 6.701331
  },
  {
    "id": "FR:clu",
    "name": "Cluses",
    "city": "Cluses",
    "country": "FR",
    "stopIds": [
      "262"
    ],
    "operators": [
      "TGVMAX"
    ],
    "lat": 46.061447,
    "lon": 6.582663
  },
  {
    "id": "FR:sls",
    "name": "Sallanches – Combloux – Megève",
    "city": "Sallanches – Combloux – Megève",
    "country": "FR",
    "stopIds": [
      "263"
    ],
    "operators": [
      "TGVMAX"
    ],
    "lat": 45.935702,
    "lon": 6.636431
  },
  {
    "id": "FR:ane",
    "name": "Annemasse",
    "city": "Annemasse",
    "country": "FR",
    "stopIds": [
      "264"
    ],
    "operators": [
      "TGVMAX"
    ],
    "lat": 46.199222,
    "lon": 6.23652
  },
  {
    "id": "FR:svt",
    "name": "St-Vincent-de-Tyrosse",
    "city": "St-Vincent-de-Tyrosse",
    "country": "FR",
    "stopIds": [
      "265"
    ],
    "operators": [
      "TGVMAX"
    ],
    "lat": 43.657736,
    "lon": -1.306493
  },
  {
    "id": "FR:auc",
    "name": "Aurillac",
    "city": "Aurillac",
    "country": "FR",
    "stopIds": [
      "266"
    ],
    "operators": [
      "TGVMAX"
    ],
    "lat": 44.921092,
    "lon": 2.435655
  },
  {
    "id": "FR:sbg",
    "name": "Sarrebourg",
    "city": "Sarrebourg",
    "country": "FR",
    "stopIds": [
      "267"
    ],
    "operators": [
      "TGVMAX"
    ],
    "lat": 48.73808,
    "lon": 7.05285
  },
  {
    "id": "FR:stt",
    "name": "Sélestat",
    "city": "Sélestat",
    "country": "FR",
    "stopIds": [
      "268"
    ],
    "operators": [
      "TGVMAX"
    ],
    "lat": 48.260117,
    "lon": 7.443278
  },
  {
    "id": "FR:eta",
    "name": "Etaples – Le Touquet",
    "city": "Etaples – Le Touquet",
    "country": "FR",
    "stopIds": [
      "269"
    ],
    "operators": [
      "TGVMAX"
    ],
    "lat": 50.51686,
    "lon": 1.64231
  },
  {
    "id": "FR:avb",
    "name": "Aubin",
    "city": "Aubin",
    "country": "FR",
    "stopIds": [
      "270"
    ],
    "operators": [
      "TGVMAX"
    ],
    "lat": 44.527276,
    "lon": 2.239313
  },
  {
    "id": "FR:tho",
    "name": "Thonon-les-Bains",
    "city": "Thonon-les-Bains",
    "country": "FR",
    "stopIds": [
      "271"
    ],
    "operators": [
      "TGVMAX"
    ],
    "lat": 46.369004,
    "lon": 6.481669
  },
  {
    "id": "FR:lha",
    "name": "Le Havre",
    "city": "Le Havre",
    "country": "FR",
    "stopIds": [
      "272"
    ],
    "operators": [
      "TGVMAX"
    ],
    "lat": 49.492996,
    "lon": 0.125677
  },
  {
    "id": "FR:rrd",
    "name": "Rouen Rive Droite",
    "city": "Rouen Rive Droite",
    "country": "FR",
    "stopIds": [
      "273"
    ],
    "operators": [
      "TGVMAX"
    ],
    "lat": 49.448764,
    "lon": 1.094087
  },
  {
    "id": "FR:mte",
    "name": "Mantes-la-Jolie",
    "city": "Mantes-la-Jolie",
    "country": "FR",
    "stopIds": [
      "274"
    ],
    "operators": [
      "TGVMAX"
    ],
    "lat": 48.98984,
    "lon": 1.70337
  },
  {
    "id": "FR:fhs",
    "name": "Calais Fréthun",
    "city": "Calais Fréthun",
    "country": "FR",
    "stopIds": [
      "275"
    ],
    "operators": [
      "TGVMAX"
    ],
    "lat": 50.902585,
    "lon": 1.811286
  },
  {
    "id": "FR:lahr-schwarzw",
    "name": "LAHR SCHWARZW",
    "city": "LAHR SCHWARZW",
    "country": "FR",
    "stopIds": [
      "276"
    ],
    "operators": [
      "TGVMAX"
    ],
    "lat": 0,
    "lon": 0
  },
  {
    "id": "FR:lns",
    "name": "Lens",
    "city": "Lens",
    "country": "FR",
    "stopIds": [
      "277"
    ],
    "operators": [
      "TGVMAX"
    ],
    "lat": 50.426818,
    "lon": 2.828254
  },
  {
    "id": "FR:tte",
    "name": "La Teste",
    "city": "La Teste",
    "country": "FR",
    "stopIds": [
      "278"
    ],
    "operators": [
      "TGVMAX"
    ],
    "lat": 44.636924,
    "lon": -1.14295
  },
  {
    "id": "FR:evi",
    "name": "Évian-les-Bains",
    "city": "Évian-les-Bains",
    "country": "FR",
    "stopIds": [
      "279"
    ],
    "operators": [
      "TGVMAX"
    ],
    "lat": 46.397915,
    "lon": 6.577457
  },
  {
    "id": "FR:sdm",
    "name": "St-Denis-près-Martel",
    "city": "St-Denis-près-Martel",
    "country": "FR",
    "stopIds": [
      "280"
    ],
    "operators": [
      "TGVMAX"
    ],
    "lat": 44.945932,
    "lon": 1.666338
  },
  {
    "id": "FR:boulogne-ville",
    "name": "BOULOGNE VILLE",
    "city": "BOULOGNE VILLE",
    "country": "FR",
    "stopIds": [
      "281"
    ],
    "operators": [
      "TGVMAX"
    ],
    "lat": 0,
    "lon": 0
  },
  {
    "id": "FR:lni",
    "name": "Lannion",
    "city": "Lannion",
    "country": "FR",
    "stopIds": [
      "282"
    ],
    "operators": [
      "TGVMAX"
    ],
    "lat": 48.727638,
    "lon": -3.460353
  },
  {
    "id": "FR:cdc",
    "name": "Capdenac",
    "city": "Capdenac",
    "country": "FR",
    "stopIds": [
      "283"
    ],
    "operators": [
      "TGVMAX"
    ],
    "lat": 44.578246,
    "lon": 2.077963
  },
  {
    "id": "FR:lqb",
    "name": "Laroquebrou",
    "city": "Laroquebrou",
    "country": "FR",
    "stopIds": [
      "284"
    ],
    "operators": [
      "TGVMAX"
    ],
    "lat": 44.964166,
    "lon": 2.192917
  },
  {
    "id": "FR:rvt",
    "name": "Rivesaltes",
    "city": "Rivesaltes",
    "country": "FR",
    "stopIds": [
      "285"
    ],
    "operators": [
      "TGVMAX"
    ],
    "lat": 42.766441,
    "lon": 2.86789
  },
  {
    "id": "FR:cer",
    "name": "Cerbère",
    "city": "Cerbère",
    "country": "FR",
    "stopIds": [
      "286"
    ],
    "operators": [
      "TGVMAX"
    ],
    "lat": 42.441773,
    "lon": 3.163403
  },
  {
    "id": "FR:rdf",
    "name": "Rang-du-Fliers – Verton",
    "city": "Rang-du-Fliers – Verton",
    "country": "FR",
    "stopIds": [
      "287"
    ],
    "operators": [
      "TGVMAX"
    ],
    "lat": 50.41579,
    "lon": 1.64805
  },
  {
    "id": "FR:anc",
    "name": "Ancenis",
    "city": "Ancenis",
    "country": "FR",
    "stopIds": [
      "288"
    ],
    "operators": [
      "TGVMAX"
    ],
    "lat": 47.369334,
    "lon": -1.177763
  },
  {
    "id": "FR:dkq",
    "name": "Dunkerque",
    "city": "Dunkerque",
    "country": "FR",
    "stopIds": [
      "289"
    ],
    "operators": [
      "TGVMAX"
    ],
    "lat": 51.03047,
    "lon": 2.368961
  },
  {
    "id": "FR:bet",
    "name": "Béthune",
    "city": "Béthune",
    "country": "FR",
    "stopIds": [
      "290"
    ],
    "operators": [
      "TGVMAX"
    ],
    "lat": 50.52144,
    "lon": 2.64055
  },
  {
    "id": "FR:lib",
    "name": "Libourne",
    "city": "Libourne",
    "country": "FR",
    "stopIds": [
      "291"
    ],
    "operators": [
      "TGVMAX"
    ],
    "lat": 44.915888,
    "lon": -0.236344
  },
  {
    "id": "FR:trc",
    "name": "Tarascon-sur-Ariège",
    "city": "Tarascon-sur-Ariège",
    "country": "FR",
    "stopIds": [
      "292"
    ],
    "operators": [
      "TGVMAX"
    ],
    "lat": 42.849539,
    "lon": 1.599932
  },
  {
    "id": "FR:cnb",
    "name": "Les Cabannes",
    "city": "Les Cabannes",
    "country": "FR",
    "stopIds": [
      "293"
    ],
    "operators": [
      "TGVMAX"
    ],
    "lat": 42.786285,
    "lon": 1.686299
  },
  {
    "id": "FR:lde",
    "name": "Luc-en-Diois",
    "city": "Luc-en-Diois",
    "country": "FR",
    "stopIds": [
      "294"
    ],
    "operators": [
      "TGVMAX"
    ],
    "lat": 44.613662,
    "lon": 5.454623
  },
  {
    "id": "FR:emb",
    "name": "Embrun",
    "city": "Embrun",
    "country": "FR",
    "stopIds": [
      "295"
    ],
    "operators": [
      "TGVMAX"
    ],
    "lat": 44.567008,
    "lon": 6.496773
  },
  {
    "id": "FR:mog",
    "name": "Montdauphin – Guillestre",
    "city": "Montdauphin – Guillestre",
    "country": "FR",
    "stopIds": [
      "296"
    ],
    "operators": [
      "TGVMAX"
    ],
    "lat": 44.674628,
    "lon": 6.615603
  },
  {
    "id": "FR:vdy",
    "name": "Veynes – Dévoluy",
    "city": "Veynes – Dévoluy",
    "country": "FR",
    "stopIds": [
      "297"
    ],
    "operators": [
      "TGVMAX"
    ],
    "lat": 44.532005,
    "lon": 5.815764
  },
  {
    "id": "FR:l-hospitalet-pres-l-and",
    "name": "L'HOSPITALET PRES L'AND.",
    "city": "L'HOSPITALET PRES L'AND.",
    "country": "FR",
    "stopIds": [
      "298"
    ],
    "operators": [
      "TGVMAX"
    ],
    "lat": 0,
    "lon": 0
  },
  {
    "id": "FR:axn",
    "name": "Ax-les-Thermes",
    "city": "Ax-les-Thermes",
    "country": "FR",
    "stopIds": [
      "299"
    ],
    "operators": [
      "TGVMAX"
    ],
    "lat": 42.724797,
    "lon": 1.833252
  },
  {
    "id": "FR:rxb",
    "name": "Roubaix",
    "city": "Roubaix",
    "country": "FR",
    "stopIds": [
      "300"
    ],
    "operators": [
      "TGVMAX"
    ],
    "lat": 50.69561,
    "lon": 3.16348
  },
  {
    "id": "FR:crz",
    "name": "Cransac",
    "city": "Cransac",
    "country": "FR",
    "stopIds": [
      "301"
    ],
    "operators": [
      "TGVMAX"
    ],
    "lat": 44.522951,
    "lon": 2.271867
  },
  {
    "id": "FR:ban",
    "name": "Banyuls-sur-Mer",
    "city": "Banyuls-sur-Mer",
    "country": "FR",
    "stopIds": [
      "302"
    ],
    "operators": [
      "TGVMAX"
    ],
    "lat": 42.482958,
    "lon": 3.12505
  },
  {
    "id": "FR:hye",
    "name": "Hyères",
    "city": "Hyères",
    "country": "FR",
    "stopIds": [
      "303"
    ],
    "operators": [
      "TGVMAX"
    ],
    "lat": 43.108867,
    "lon": 6.124223
  },
  {
    "id": "FR:die",
    "name": "Die",
    "city": "Die",
    "country": "FR",
    "stopIds": [
      "304"
    ],
    "operators": [
      "TGVMAX"
    ],
    "lat": 44.758255,
    "lon": 5.363205
  },
  {
    "id": "FR:gap",
    "name": "Gap",
    "city": "Gap",
    "country": "FR",
    "stopIds": [
      "305"
    ],
    "operators": [
      "TGVMAX"
    ],
    "lat": 44.563693,
    "lon": 6.085638
  },
  {
    "id": "FR:bri",
    "name": "Briançon",
    "city": "Briançon",
    "country": "FR",
    "stopIds": [
      "306"
    ],
    "operators": [
      "TGVMAX"
    ],
    "lat": 44.889853,
    "lon": 6.633007
  },
  {
    "id": "FR:alm",
    "name": "Albi Madeleine",
    "city": "Albi Madeleine",
    "country": "FR",
    "stopIds": [
      "307"
    ],
    "operators": [
      "TGVMAX"
    ],
    "lat": 43.938011,
    "lon": 2.140963
  },
  {
    "id": "FR:fig",
    "name": "Figeac",
    "city": "Figeac",
    "country": "FR",
    "stopIds": [
      "308"
    ],
    "operators": [
      "TGVMAX"
    ],
    "lat": 44.603515,
    "lon": 2.037355
  },
  {
    "id": "FR:rdz",
    "name": "Rodez",
    "city": "Rodez",
    "country": "FR",
    "stopIds": [
      "309"
    ],
    "operators": [
      "TGVMAX"
    ],
    "lat": 44.362633,
    "lon": 2.58056
  },
  {
    "id": "FR:nce",
    "name": "Naucelle",
    "city": "Naucelle",
    "country": "FR",
    "stopIds": [
      "310"
    ],
    "operators": [
      "TGVMAX"
    ],
    "lat": 44.185479,
    "lon": 2.363504
  },
  {
    "id": "FR:sed",
    "name": "Sedan",
    "city": "Sedan",
    "country": "FR",
    "stopIds": [
      "311"
    ],
    "operators": [
      "TGVMAX"
    ],
    "lat": 49.695024,
    "lon": 4.930373
  },
  {
    "id": "FR:eln",
    "name": "Elne",
    "city": "Elne",
    "country": "FR",
    "stopIds": [
      "312"
    ],
    "operators": [
      "TGVMAX"
    ],
    "lat": 42.597114,
    "lon": 2.963585
  },
  {
    "id": "FR:aer",
    "name": "Assier",
    "city": "Assier",
    "country": "FR",
    "stopIds": [
      "313"
    ],
    "operators": [
      "TGVMAX"
    ],
    "lat": 44.67462,
    "lon": 1.869768
  },
  {
    "id": "FR:cre",
    "name": "Crest",
    "city": "Crest",
    "country": "FR",
    "stopIds": [
      "314"
    ],
    "operators": [
      "TGVMAX"
    ],
    "lat": 44.730155,
    "lon": 5.016097
  },
  {
    "id": "FR:pln",
    "name": "Port-la-Nouvelle",
    "city": "Port-la-Nouvelle",
    "country": "FR",
    "stopIds": [
      "315"
    ],
    "operators": [
      "TGVMAX"
    ],
    "lat": 43.019934,
    "lon": 3.038819
  },
  {
    "id": "FR:leu",
    "name": "Leucate – La-Franqui",
    "city": "Leucate – La-Franqui",
    "country": "FR",
    "stopIds": [
      "316"
    ],
    "operators": [
      "TGVMAX"
    ],
    "lat": 42.932773,
    "lon": 3.012856
  },
  {
    "id": "FR:lay",
    "name": "Landry",
    "city": "Landry",
    "country": "FR",
    "stopIds": [
      "317"
    ],
    "operators": [
      "TGVMAX"
    ],
    "lat": 45.574171,
    "lon": 6.733818
  },
  {
    "id": "FR:mos",
    "name": "Moûtiers – Salins",
    "city": "Moûtiers – Salins",
    "country": "FR",
    "stopIds": [
      "318"
    ],
    "operators": [
      "TGVMAX"
    ],
    "lat": 45.486344,
    "lon": 6.531425
  },
  {
    "id": "FR:bsm",
    "name": "Bourg-St-Maurice",
    "city": "Bourg-St-Maurice",
    "country": "FR",
    "stopIds": [
      "319"
    ],
    "operators": [
      "TGVMAX"
    ],
    "lat": 45.619036,
    "lon": 6.771273
  },
  {
    "id": "FR:alv",
    "name": "Albertville",
    "city": "Albertville",
    "country": "FR",
    "stopIds": [
      "320"
    ],
    "operators": [
      "TGVMAX"
    ],
    "lat": 45.672977,
    "lon": 6.383167
  },
  {
    "id": "FR:smi",
    "name": "St-Michel – Valloire",
    "city": "St-Michel – Valloire",
    "country": "FR",
    "stopIds": [
      "321"
    ],
    "operators": [
      "TGVMAX"
    ],
    "lat": 45.216916,
    "lon": 6.471914
  },
  {
    "id": "FR:pov",
    "name": "Port-Vendres",
    "city": "Port-Vendres",
    "country": "FR",
    "stopIds": [
      "322"
    ],
    "operators": [
      "TGVMAX"
    ],
    "lat": 42.513608,
    "lon": 3.102576
  },
  {
    "id": "FR:amr",
    "name": "Argelès-sur-Mer",
    "city": "Argelès-sur-Mer",
    "country": "FR",
    "stopIds": [
      "323"
    ],
    "operators": [
      "TGVMAX"
    ],
    "lat": 42.54397,
    "lon": 3.022349
  },
  {
    "id": "FR:lee",
    "name": "L’Argentière – Les-Ecrins",
    "city": "L’Argentière – Les-Ecrins",
    "country": "FR",
    "stopIds": [
      "324"
    ],
    "operators": [
      "TGVMAX"
    ],
    "lat": 44.79098,
    "lon": 6.556416
  },
  {
    "id": "FR:csv",
    "name": "Calais Ville",
    "city": "Calais Ville",
    "country": "FR",
    "stopIds": [
      "325"
    ],
    "operators": [
      "TGVMAX"
    ],
    "lat": 50.952613,
    "lon": 1.848185
  },
  {
    "id": "FR:anj",
    "name": "Aime-la-Plagne",
    "city": "Aime-la-Plagne",
    "country": "FR",
    "stopIds": [
      "326"
    ],
    "operators": [
      "TGVMAX"
    ],
    "lat": 45.5544,
    "lon": 6.648646
  },
  {
    "id": "FR:berlin-hbf",
    "name": "BERLIN HBF",
    "city": "BERLIN HBF",
    "country": "FR",
    "stopIds": [
      "327"
    ],
    "operators": [
      "TGVMAX"
    ],
    "lat": 0,
    "lon": 0
  },
  {
    "id": "FR:berlin-sudkreuz",
    "name": "BERLIN SUDKREUZ",
    "city": "BERLIN SUDKREUZ",
    "country": "FR",
    "stopIds": [
      "328"
    ],
    "operators": [
      "TGVMAX"
    ],
    "lat": 0,
    "lon": 0
  },
  {
    "id": "FR:erfurt-hbf",
    "name": "ERFURT HBF",
    "city": "ERFURT HBF",
    "country": "FR",
    "stopIds": [
      "329"
    ],
    "operators": [
      "TGVMAX"
    ],
    "lat": 0,
    "lon": 0
  },
  {
    "id": "FR:berlin-gesundbrunnen",
    "name": "BERLIN-GESUNDBRUNNEN",
    "city": "BERLIN-GESUNDBRUNNEN",
    "country": "FR",
    "stopIds": [
      "330"
    ],
    "operators": [
      "TGVMAX"
    ],
    "lat": 0,
    "lon": 0
  },
  {
    "id": "FR:halle-saale-hbf",
    "name": "HALLE (SAALE) HBF",
    "city": "HALLE (SAALE) HBF",
    "country": "FR",
    "stopIds": [
      "331"
    ],
    "operators": [
      "TGVMAX"
    ],
    "lat": 0,
    "lon": 0
  },
  {
    "id": "FR:ppm",
    "name": "Porté-Puymorens",
    "city": "Porté-Puymorens",
    "country": "FR",
    "stopIds": [
      "332"
    ],
    "operators": [
      "TGVMAX"
    ],
    "lat": 42.539136,
    "lon": 1.824846
  },
  {
    "id": "FR:vaihingen-enz",
    "name": "VAIHINGEN (ENZ)",
    "city": "VAIHINGEN (ENZ)",
    "country": "FR",
    "stopIds": [
      "333"
    ],
    "operators": [
      "TGVMAX"
    ],
    "lat": 0,
    "lon": 0
  },
  {
    "id": "FR:esslingen-neckar",
    "name": "ESSLINGEN(NECKAR)",
    "city": "ESSLINGEN(NECKAR)",
    "country": "FR",
    "stopIds": [
      "334"
    ],
    "operators": [
      "TGVMAX"
    ],
    "lat": 0,
    "lon": 0
  },
  {
    "id": "FR:grt",
    "name": "Gramat",
    "city": "Gramat",
    "country": "FR",
    "stopIds": [
      "335"
    ],
    "operators": [
      "TGVMAX"
    ],
    "lat": 44.773428,
    "lon": 1.722303
  },
  {
    "id": "FR:svb",
    "name": "St-Avre – La Chambre",
    "city": "St-Avre – La Chambre",
    "country": "FR",
    "stopIds": [
      "336"
    ],
    "operators": [
      "TGVMAX"
    ],
    "lat": 45.353098,
    "lon": 6.302828
  },
  {
    "id": "FR:alb",
    "name": "Albi Ville",
    "city": "Albi Ville",
    "country": "FR",
    "stopIds": [
      "337"
    ],
    "operators": [
      "TGVMAX"
    ],
    "lat": 43.92238,
    "lon": 2.137958
  },
  {
    "id": "FR:cmx",
    "name": "Carmaux",
    "city": "Carmaux",
    "country": "FR",
    "stopIds": [
      "338"
    ],
    "operators": [
      "TGVMAX"
    ],
    "lat": 44.048782,
    "lon": 2.152401
  }
]