{"0":{"name":"Tours","lat":47.389781,"lon":0.693703},"1":{"name":"St-Pierre-des-Corps","lat":47.386099,"lon":0.72355},"2":{"name":"Massy TGV","lat":48.725758,"lon":2.261254},"3":{"name":"Valence TGV","lat":44.991545,"lon":4.978703},"4":{"name":"Lyon Vaise","lat":45.779938,"lon":4.80396},"5":{"name":"Montpellier Sud de France","lat":43.59508,"lon":3.92403},"6":{"name":"Nantes","lat":47.216148,"lon":-1.542356},"7":{"name":"Nîmes Pont du Gard","lat":43.816944,"lon":4.507778},"8":{"name":"Paris Bercy Bourgogne-Pays d’Auvergne","lat":48.83917,"lon":2.38278},"9":{"name":"Champagne-Ardenne TGV","lat":49.214806,"lon":3.994632},"10":{"name":"Meuse TGV","lat":48.978549,"lon":5.270954},"11":{"name":"La Rochelle Ville","lat":46.15269,"lon":-1.145305},"12":{"name":"Niort","lat":46.319491,"lon":-0.454639},"13":{"name":"Aix-en-Provence TGV","lat":43.455237,"lon":5.317534},"14":{"name":"Dijon Ville","lat":47.32337,"lon":5.027208},"15":{"name":"Avignon TGV","lat":43.921586,"lon":4.786079},"16":{"name":"Strasbourg","lat":48.584967,"lon":7.734584},"17":{"name":"Belfort – Montbéliard TGV","lat":47.585937,"lon":6.897687},"18":{"name":"Mâcon Ville","lat":46.302572,"lon":4.824887},"19":{"name":"Colmar","lat":48.073201,"lon":7.346967},"20":{"name":"Cannes","lat":43.553839,"lon":7.019682},"21":{"name":"Beaune","lat":47.023053,"lon":4.848379},"22":{"name":"Marseille St-Charles","lat":43.302666,"lon":5.380407},"23":{"name":"Mulhouse","lat":47.742224,"lon":7.342396},"24":{"name":"Nice Ville","lat":43.704556,"lon":7.261904},"25":{"name":"Toulon","lat":43.12837,"lon":5.929293},"26":{"name":"Antibes","lat":43.585784,"lon":7.119498},"27":{"name":"St-Raphaël – Valescure","lat":43.42356,"lon":6.769083},"28":{"name":"Besançon-Franche-Comté TGV","lat":47.307361,"lon":5.953195},"29":{"name":"Les Arcs – Draguignan","lat":43.455524,"lon":6.482498},"30":{"name":"BOURCEFRANC LE CHAPUS","lat":0,"lon":0},"31":{"name":"MARENNES","lat":0,"lon":0},"32":{"name":"Surgères","lat":46.113238,"lon":-0.762284},"33":{"name":"ST PIERRE D'OLERON","lat":0,"lon":0},"34":{"name":"DOLUS D'OLERON","lat":0,"lon":0},"35":{"name":"SAINT MIHIEL","lat":0,"lon":0},"36":{"name":"SAINT MIHIEL DETENTION","lat":0,"lon":0},"37":{"name":"Béziers","lat":43.33633,"lon":3.218873},"38":{"name":"Carcassonne","lat":43.218029,"lon":2.351824},"39":{"name":"Nîmes Centre","lat":43.832291,"lon":4.365845},"40":{"name":"Narbonne","lat":43.190387,"lon":3.00591},"41":{"name":"Toulouse Matabiau","lat":43.611206,"lon":1.453616},"42":{"name":"Sète","lat":43.412485,"lon":3.69656},"43":{"name":"Pau","lat":43.291762,"lon":-0.369626},"44":{"name":"Hendaye","lat":43.353132,"lon":-1.781724},"45":{"name":"Orthez","lat":43.484242,"lon":-0.76776},"46":{"name":"Lourdes","lat":43.10037,"lon":-0.042174},"47":{"name":"Biarritz","lat":43.459397,"lon":-1.545915},"48":{"name":"Bayonne","lat":43.496801,"lon":-1.470306},"49":{"name":"St-Jean-de-Luz – Ciboure","lat":43.385838,"lon":-1.66122},"50":{"name":"Tarbes","lat":43.239955,"lon":0.069415},"51":{"name":"Lannemezan","lat":43.114273,"lon":0.387367},"52":{"name":"Nancy","lat":48.689861,"lon":6.174583},"53":{"name":"Le Croisic","lat":47.289836,"lon":-2.507442},"54":{"name":"BASEL SBB","lat":0,"lon":0},"55":{"name":"Angoulême","lat":45.653572,"lon":0.164608},"56":{"name":"LACANAU OCEAN","lat":0,"lon":0},"57":{"name":"Bordeaux St-Jean","lat":44.825873,"lon":-0.556697},"58":{"name":"Croix – Wasquehal","lat":50.678557,"lon":3.138032},"59":{"name":"Arras","lat":50.286673,"lon":2.781942},"60":{"name":"LES PORTES EN RE","lat":0,"lon":0},"61":{"name":"STE MARIE DE RE","lat":0,"lon":0},"62":{"name":"RIVEDOUX PLAGE","lat":0,"lon":0},"63":{"name":"ST MARTIN DE RE","lat":0,"lon":0},"64":{"name":"LA NOUE","lat":0,"lon":0},"65":{"name":"LOIX","lat":0,"lon":0},"66":{"name":"PIERREFITTE SUR AIRE","lat":0,"lon":0},"67":{"name":"Grenoble","lat":45.191493,"lon":5.714584},"68":{"name":"St-Étienne Châteaucreux","lat":45.443366,"lon":4.399722},"69":{"name":"Lyon St-Exupéry TGV","lat":45.721109,"lon":5.074969},"70":{"name":"Miramas","lat":43.580704,"lon":5.000264},"71":{"name":"Montélimar","lat":44.559079,"lon":4.744792},"72":{"name":"Avignon Centre","lat":43.9419,"lon":4.805281},"73":{"name":"Orange","lat":44.137304,"lon":4.819594},"74":{"name":"BRUXELLES MIDI","lat":0,"lon":0},"75":{"name":"Marne-la-Vallée – Chessy","lat":48.869856,"lon":2.78272},"76":{"name":"Lille-Flandres","lat":50.636577,"lon":3.06987},"77":{"name":"Uzerche","lat":45.440709,"lon":1.570274},"78":{"name":"Limoges Bénédictins","lat":45.836089,"lon":1.267356},"79":{"name":"Brive-la-Gaillarde","lat":45.152618,"lon":1.528655},"80":{"name":"Vierzon","lat":47.226497,"lon":2.059822},"81":{"name":"Argenton-sur-Creuse","lat":46.592248,"lon":1.518305},"82":{"name":"La Souterraine","lat":46.239792,"lon":1.492151},"83":{"name":"TGV HAUTE PICARDIE","lat":0,"lon":0},"84":{"name":"Bellegarde-sur-Valserine","lat":46.109425,"lon":5.823483},"85":{"name":"Bourg-en-Bresse","lat":46.200351,"lon":5.215063},"86":{"name":"OFFENBURG","lat":0,"lon":0},"87":{"name":"FREIBURG (BREISGAU) HBF","lat":0,"lon":0},"88":{"name":"RINGSHEIM EUROPA PARK","lat":0,"lon":0},"89":{"name":"Bar-le-Duc","lat":48.773308,"lon":5.166822},"90":{"name":"LEROUVILLE CENTRE","lat":0,"lon":0},"91":{"name":"FRESNES AU MONT","lat":0,"lon":0},"92":{"name":"Laval","lat":48.076206,"lon":-0.760907},"93":{"name":"Dol-de-Bretagne","lat":48.54425,"lon":-1.750536},"94":{"name":"MANNHEIM HBF","lat":0,"lon":0},"95":{"name":"FRANKFURT AM MAIN HBF","lat":0,"lon":0},"96":{"name":"KARLSRUHE HBF","lat":0,"lon":0},"97":{"name":"St-Gaudens","lat":43.105034,"lon":0.729104},"98":{"name":"STUTTGART HBF","lat":0,"lon":0},"99":{"name":"Clermont-Ferrand","lat":45.778945,"lon":3.100543},"100":{"name":"Riom – Châtel-Guyon","lat":45.889965,"lon":3.120498},"101":{"name":"Moulins-sur-Allier","lat":46.561346,"lon":3.338842},"102":{"name":"Nevers","lat":46.987282,"lon":3.150743},"103":{"name":"Gourdon","lat":44.741945,"lon":1.389237},"104":{"name":"Châteauroux","lat":46.809737,"lon":1.699536},"105":{"name":"Le Mans","lat":47.995034,"lon":0.19014},"106":{"name":"Rennes","lat":48.103517,"lon":-1.672744},"107":{"name":"Saint-Dié-des-Vosges","lat":48.282225,"lon":6.948656},"108":{"name":"Lunéville","lat":48.588233,"lon":6.49727},"109":{"name":"Morlaix","lat":48.57797,"lon":-3.832514},"110":{"name":"Brest","lat":48.38811,"lon":-4.478903},"111":{"name":"Angers St-Laud","lat":47.464647,"lon":-0.55682},"112":{"name":"Saumur","lat":47.269,"lon":-0.07136},"113":{"name":"St-Germain-des-Fossés","lat":46.209185,"lon":3.430614},"114":{"name":"Bourges","lat":47.094145,"lon":2.394255},"115":{"name":"Roanne","lat":46.039383,"lon":4.063207},"116":{"name":"AUGSBURG HBF","lat":0,"lon":0},"117":{"name":"ULM HBF","lat":0,"lon":0},"118":{"name":"Agde","lat":43.31728,"lon":3.466203},"119":{"name":"Perpignan","lat":42.696292,"lon":2.879779},"120":{"name":"GIRONA","lat":0,"lon":0},"121":{"name":"FIGUERES VILAFANT","lat":0,"lon":0},"122":{"name":"Verdun","lat":49.165406,"lon":5.379701},"123":{"name":"LAUSANNE","lat":0,"lon":0},"124":{"name":"Dole Ville","lat":47.096084,"lon":5.488105},"125":{"name":"Frasne","lat":46.857596,"lon":6.157767},"126":{"name":"Aéroport Paris Roissy Charles de Gaulle CDG T2","lat":49.003652,"lon":2.570892},"127":{"name":"Lorraine TGV","lat":48.947773,"lon":6.169838},"128":{"name":"St-Maixent","lat":46.406607,"lon":-0.201073},"129":{"name":"Poitiers","lat":46.582275,"lon":0.333241},"130":{"name":"Le Creusot","lat":46.807815,"lon":4.43044},"131":{"name":"Lamballe","lat":48.46606,"lon":-2.511546},"132":{"name":"St-Brieuc","lat":48.50758,"lon":-2.765},"133":{"name":"Landerneau","lat":48.453572,"lon":-4.256528},"134":{"name":"Plouaret – Trégor","lat":48.606282,"lon":-3.466823},"135":{"name":"Guingamp","lat":48.555659,"lon":-3.143343},"136":{"name":"Montpellier St-Roch","lat":43.604738,"lon":3.880674},"137":{"name":"Les Aubrais","lat":47.926801,"lon":1.906629},"138":{"name":"Mérens-les-Vals","lat":42.659488,"lon":1.837128},"139":{"name":"Pamiers","lat":43.116207,"lon":1.619451},"140":{"name":"Saverdun","lat":43.239357,"lon":1.570616},"141":{"name":"Auterive (Haute Garonne)","lat":43.348993,"lon":1.468831},"142":{"name":"St-Nazaire","lat":47.286412,"lon":-2.211096},"143":{"name":"Le Pouliguen","lat":47.28254,"lon":-2.433145},"144":{"name":"Pornichet","lat":47.270535,"lon":-2.344577},"145":{"name":"La Baule-Escoublac","lat":47.28869,"lon":-2.389102},"146":{"name":"BIGANOS FACTURE","lat":0,"lon":0},"147":{"name":"Arcachon","lat":44.659009,"lon":-1.16523},"148":{"name":"La Roche-sur-Yon","lat":46.67212,"lon":-1.435621},"149":{"name":"Saintes","lat":45.74874,"lon":-0.6179},"150":{"name":"Luçon","lat":46.463823,"lon":-1.167422},"151":{"name":"Rochefort","lat":45.947189,"lon":-0.963556},"152":{"name":"Dax","lat":43.720472,"lon":-1.050301},"153":{"name":"Collioure","lat":42.526944,"lon":3.078232},"154":{"name":"Quimperlé","lat":47.869375,"lon":-3.552693},"155":{"name":"Quimper","lat":47.994455,"lon":-4.092103},"156":{"name":"Lorient","lat":47.755597,"lon":-3.366221},"157":{"name":"Rosporden","lat":47.960273,"lon":-3.832763},"158":{"name":"Vichy","lat":46.126979,"lon":3.430448},"159":{"name":"GENEVE CORNAVIN","lat":0,"lon":0},"160":{"name":"Metz","lat":49.109545,"lon":6.176593},"161":{"name":"LUXEMBOURG","lat":0,"lon":0},"162":{"name":"Agen","lat":44.208311,"lon":0.620932},"163":{"name":"Montauban Ville Bourbon","lat":44.014387,"lon":1.341496},"164":{"name":"Vitry-le-François","lat":48.718142,"lon":4.587581},"165":{"name":"Châlons-en-Champagne","lat":48.955252,"lon":4.348656},"166":{"name":"Vannes","lat":47.665169,"lon":-2.75245},"167":{"name":"Redon","lat":47.652004,"lon":-2.08777},"168":{"name":"Auray","lat":47.68022,"lon":-2.999995},"169":{"name":"Jonzac","lat":45.438746,"lon":-0.44164},"170":{"name":"MUNCHEN HBF","lat":0,"lon":0},"171":{"name":"BARCELONA SANTS","lat":0,"lon":0},"172":{"name":"VALLORBE","lat":0,"lon":0},"173":{"name":"Mouchard","lat":46.976911,"lon":5.799644},"174":{"name":"SAMPIGNY CENTRE","lat":0,"lon":0},"175":{"name":"Rocamadour – Padirac","lat":44.818356,"lon":1.657349},"176":{"name":"Viviez – Decazeville","lat":44.555568,"lon":2.218258},"177":{"name":"Amiens","lat":49.890746,"lon":2.312592},"178":{"name":"Saverne","lat":48.744461,"lon":7.36208},"179":{"name":"Souillac","lat":44.902127,"lon":1.466605},"180":{"name":"Cahors","lat":44.449275,"lon":1.433325},"181":{"name":"Commercy","lat":48.765749,"lon":5.58861},"182":{"name":"Chambéry Challes-les-Eaux","lat":45.571302,"lon":5.919547},"183":{"name":"Mâcon – Loché TGV","lat":46.282884,"lon":4.778876},"184":{"name":"Annecy","lat":45.901965,"lon":6.121835},"185":{"name":"SOUILLY","lat":0,"lon":0},"186":{"name":"Vendôme","lat":47.80215,"lon":1.067873},"187":{"name":"Châtellerault","lat":46.818594,"lon":0.549279},"188":{"name":"Vitré","lat":48.122671,"lon":-1.211754},"189":{"name":"Valenciennes","lat":50.363259,"lon":3.517115},"190":{"name":"Marseille Blancarde","lat":43.296144,"lon":5.406559},"191":{"name":"Montréjeau – Gourdan-Polignan","lat":43.078109,"lon":0.5735},"192":{"name":"Arles","lat":43.684853,"lon":4.63203},"193":{"name":"Marmande","lat":44.503019,"lon":0.168044},"194":{"name":"Thionville","lat":49.353931,"lon":6.169543},"195":{"name":"Culmont-Chalindrey","lat":47.81009,"lon":5.443222},"196":{"name":"Neufchâteau","lat":48.358343,"lon":5.690402},"197":{"name":"Toul","lat":48.679018,"lon":5.880615},"198":{"name":"Chalon-sur-Saône","lat":46.781612,"lon":4.843454},"199":{"name":"Reims Maison Blanche","lat":49.233685,"lon":4.022493},"200":{"name":"Les Sables-d’Olonne","lat":46.499917,"lon":-1.78105},"201":{"name":"St-Christophe","lat":44.464619,"lon":2.407759},"202":{"name":"St-Malo","lat":48.646859,"lon":-2.004158},"203":{"name":"Rethel","lat":49.504393,"lon":4.369566},"204":{"name":"Charleville-Mézières","lat":49.767915,"lon":4.724952},"205":{"name":"Hazebrouck","lat":50.72501,"lon":2.54129},"206":{"name":"Issoudun","lat":46.948763,"lon":1.985834},"207":{"name":"Chorges","lat":44.545842,"lon":6.271889},"208":{"name":"Foix","lat":42.969746,"lon":1.607147},"209":{"name":"Latour-de-Carol – Enveitg","lat":42.459046,"lon":1.904503},"210":{"name":"Luzenac – Garanou","lat":42.764285,"lon":1.753125},"211":{"name":"Sablé-sur-Sarthe","lat":47.841593,"lon":-0.341936},"212":{"name":"Épinal","lat":48.178005,"lon":6.441787},"213":{"name":"Remiremont","lat":48.016363,"lon":6.598855},"214":{"name":"ZURICH HB","lat":0,"lon":0},"215":{"name":"Bretenoux – Biars","lat":44.927369,"lon":1.843687},"216":{"name":"KAISERSLAUTERN HBF","lat":0,"lon":0},"217":{"name":"Forbach","lat":49.189228,"lon":6.901318},"218":{"name":"SAARBRUECKEN/SARREBRUCK","lat":0,"lon":0},"219":{"name":"BADEN BADEN","lat":0,"lon":0},"220":{"name":"Caussade (Tarn-et-Garonne)","lat":44.162267,"lon":1.533654},"221":{"name":"St-Quentin","lat":49.840048,"lon":3.297009},"222":{"name":"Douai","lat":50.371677,"lon":3.089986},"223":{"name":"Besançon Viotte","lat":47.247019,"lon":6.022003},"224":{"name":"Modane","lat":45.193365,"lon":6.658161},"225":{"name":"OUX CESANA CLAV SESTRIERE","lat":0,"lon":0},"226":{"name":"TORINO PORTA SUSA","lat":0,"lon":0},"227":{"name":"St-Jean-de-Maurienne – Arvan","lat":45.277542,"lon":6.354716},"228":{"name":"MILANO PORTA GARIBALDI","lat":0,"lon":0},"229":{"name":"Futuroscope","lat":46.669918,"lon":0.377209},"230":{"name":"Montbard","lat":47.618747,"lon":4.33616},"231":{"name":"Blois – Chambord","lat":47.585445,"lon":1.323823},"232":{"name":"Juvisy","lat":48.68917,"lon":2.38267},"233":{"name":"Massy – Palaiseau","lat":48.726421,"lon":2.257528},"234":{"name":"Versailles-Chantiers","lat":48.795826,"lon":2.135883},"235":{"name":"Chartres","lat":48.448202,"lon":1.481313},"236":{"name":"Tourcoing","lat":50.71683,"lon":3.16804},"237":{"name":"ANGOULAME","lat":0,"lon":0},"238":{"name":"Brassac-les-Mines – Ste-Florine","lat":45.414246,"lon":3.330167},"239":{"name":"Issoire","lat":45.543884,"lon":3.25398},"240":{"name":"Arvant","lat":45.36538,"lon":3.310675},"241":{"name":"Massiac-Blesle","lat":45.25377,"lon":3.196552},"242":{"name":"Millau","lat":44.102344,"lon":3.07457},"243":{"name":"St-Georges-de-Luzençon","lat":44.066553,"lon":2.983784},"244":{"name":"Neussargues","lat":45.125304,"lon":2.979187},"245":{"name":"Bédarieux","lat":43.608697,"lon":3.149569},"246":{"name":"St-Flour – Chaudes-Aigues","lat":45.035012,"lon":3.106286},"247":{"name":"Marvejols","lat":44.544682,"lon":3.281072},"248":{"name":"Banassac – La Canourgue","lat":44.447763,"lon":3.195852},"249":{"name":"Le Bousquet-d’Orb","lat":43.69121,"lon":3.168938},"250":{"name":"Ceilhes – Roqueredonde","lat":43.812266,"lon":3.155158},"251":{"name":"St-Chély-d’Apcher","lat":44.801738,"lon":3.27069},"252":{"name":"Magalas","lat":43.4676,"lon":3.229542},"253":{"name":"St-Rome-de-Cernon","lat":44.013981,"lon":2.967374},"254":{"name":"Campagnac – St-Geniez","lat":44.421956,"lon":3.066401},"255":{"name":"Séverac-le-Château","lat":44.324652,"lon":3.056945},"256":{"name":"Aumont-Aubrac","lat":44.71817,"lon":3.283549},"257":{"name":"Tournemire – Roquefort","lat":43.9698,"lon":3.016626},"258":{"name":"Le Monastier","lat":44.508968,"lon":3.252057},"259":{"name":"Nurieux","lat":46.18422,"lon":5.532749},"260":{"name":"Aix-les-Bains – Le Revard","lat":45.688161,"lon":5.909371},"261":{"name":"St-Gervais-les-Bains – Le Fayet","lat":45.906423,"lon":6.701331},"262":{"name":"Cluses","lat":46.061447,"lon":6.582663},"263":{"name":"Sallanches – Combloux – Megève","lat":45.935702,"lon":6.636431},"264":{"name":"Annemasse","lat":46.199222,"lon":6.23652},"265":{"name":"St-Vincent-de-Tyrosse","lat":43.657736,"lon":-1.306493},"266":{"name":"Aurillac","lat":44.921092,"lon":2.435655},"267":{"name":"Sarrebourg","lat":48.73808,"lon":7.05285},"268":{"name":"Sélestat","lat":48.260117,"lon":7.443278},"269":{"name":"Etaples – Le Touquet","lat":50.51686,"lon":1.64231},"270":{"name":"Aubin","lat":44.527276,"lon":2.239313},"271":{"name":"Thonon-les-Bains","lat":46.369004,"lon":6.481669},"272":{"name":"Le Havre","lat":49.492996,"lon":0.125677},"273":{"name":"Rouen Rive Droite","lat":49.448764,"lon":1.094087},"274":{"name":"Mantes-la-Jolie","lat":48.98984,"lon":1.70337},"275":{"name":"Calais Fréthun","lat":50.902585,"lon":1.811286},"276":{"name":"LAHR SCHWARZW","lat":0,"lon":0},"277":{"name":"Lens","lat":50.426818,"lon":2.828254},"278":{"name":"La Teste","lat":44.636924,"lon":-1.14295},"279":{"name":"Évian-les-Bains","lat":46.397915,"lon":6.577457},"280":{"name":"St-Denis-près-Martel","lat":44.945932,"lon":1.666338},"281":{"name":"BOULOGNE VILLE","lat":0,"lon":0},"282":{"name":"Lannion","lat":48.727638,"lon":-3.460353},"283":{"name":"Capdenac","lat":44.578246,"lon":2.077963},"284":{"name":"Laroquebrou","lat":44.964166,"lon":2.192917},"285":{"name":"Rivesaltes","lat":42.766441,"lon":2.86789},"286":{"name":"Cerbère","lat":42.441773,"lon":3.163403},"287":{"name":"Rang-du-Fliers – Verton","lat":50.41579,"lon":1.64805},"288":{"name":"Ancenis","lat":47.369334,"lon":-1.177763},"289":{"name":"Dunkerque","lat":51.03047,"lon":2.368961},"290":{"name":"Béthune","lat":50.52144,"lon":2.64055},"291":{"name":"Libourne","lat":44.915888,"lon":-0.236344},"292":{"name":"Tarascon-sur-Ariège","lat":42.849539,"lon":1.599932},"293":{"name":"Les Cabannes","lat":42.786285,"lon":1.686299},"294":{"name":"Luc-en-Diois","lat":44.613662,"lon":5.454623},"295":{"name":"Embrun","lat":44.567008,"lon":6.496773},"296":{"name":"Montdauphin – Guillestre","lat":44.674628,"lon":6.615603},"297":{"name":"Veynes – Dévoluy","lat":44.532005,"lon":5.815764},"298":{"name":"L'HOSPITALET PRES L'AND.","lat":0,"lon":0},"299":{"name":"Ax-les-Thermes","lat":42.724797,"lon":1.833252},"300":{"name":"Roubaix","lat":50.69561,"lon":3.16348},"301":{"name":"Cransac","lat":44.522951,"lon":2.271867},"302":{"name":"Banyuls-sur-Mer","lat":42.482958,"lon":3.12505},"303":{"name":"Hyères","lat":43.108867,"lon":6.124223},"304":{"name":"Die","lat":44.758255,"lon":5.363205},"305":{"name":"Gap","lat":44.563693,"lon":6.085638},"306":{"name":"Briançon","lat":44.889853,"lon":6.633007},"307":{"name":"Albi Madeleine","lat":43.938011,"lon":2.140963},"308":{"name":"Figeac","lat":44.603515,"lon":2.037355},"309":{"name":"Rodez","lat":44.362633,"lon":2.58056},"310":{"name":"Naucelle","lat":44.185479,"lon":2.363504},"311":{"name":"Sedan","lat":49.695024,"lon":4.930373},"312":{"name":"Elne","lat":42.597114,"lon":2.963585},"313":{"name":"Assier","lat":44.67462,"lon":1.869768},"314":{"name":"Crest","lat":44.730155,"lon":5.016097},"315":{"name":"Port-la-Nouvelle","lat":43.019934,"lon":3.038819},"316":{"name":"Leucate – La-Franqui","lat":42.932773,"lon":3.012856},"317":{"name":"Landry","lat":45.574171,"lon":6.733818},"318":{"name":"Moûtiers – Salins","lat":45.486344,"lon":6.531425},"319":{"name":"Bourg-St-Maurice","lat":45.619036,"lon":6.771273},"320":{"name":"Albertville","lat":45.672977,"lon":6.383167},"321":{"name":"St-Michel – Valloire","lat":45.216916,"lon":6.471914},"322":{"name":"Port-Vendres","lat":42.513608,"lon":3.102576},"323":{"name":"Argelès-sur-Mer","lat":42.54397,"lon":3.022349},"324":{"name":"L’Argentière – Les-Ecrins","lat":44.79098,"lon":6.556416},"325":{"name":"Calais Ville","lat":50.952613,"lon":1.848185},"326":{"name":"Aime-la-Plagne","lat":45.5544,"lon":6.648646},"327":{"name":"BERLIN HBF","lat":0,"lon":0},"328":{"name":"BERLIN SUDKREUZ","lat":0,"lon":0},"329":{"name":"ERFURT HBF","lat":0,"lon":0},"330":{"name":"BERLIN-GESUNDBRUNNEN","lat":0,"lon":0},"331":{"name":"HALLE (SAALE) HBF","lat":0,"lon":0},"332":{"name":"Porté-Puymorens","lat":42.539136,"lon":1.824846},"333":{"name":"VAIHINGEN (ENZ)","lat":0,"lon":0},"334":{"name":"ESSLINGEN(NECKAR)","lat":0,"lon":0},"335":{"name":"Gramat","lat":44.773428,"lon":1.722303},"336":{"name":"St-Avre – La Chambre","lat":45.353098,"lon":6.302828},"337":{"name":"Albi Ville","lat":43.92238,"lon":2.137958},"338":{"name":"Carmaux","lat":44.048782,"lon":2.152401}}