{"0":{"name":"Tournemire – Roquefort","lat":43.9698,"lon":3.016626},"1":{"name":"Ceilhes – Roqueredonde","lat":43.812266,"lon":3.155158},"2":{"name":"Séverac-le-Château","lat":44.324652,"lon":3.056945},"3":{"name":"St-Rome-de-Cernon","lat":44.013981,"lon":2.967374},"4":{"name":"Le Bousquet-d’Orb","lat":43.69121,"lon":3.168938},"5":{"name":"Brassac-les-Mines – Ste-Florine","lat":45.414246,"lon":3.330167},"6":{"name":"Millau","lat":44.102344,"lon":3.07457},"7":{"name":"Bédarieux","lat":43.608697,"lon":3.149569},"8":{"name":"Massiac-Blesle","lat":45.25377,"lon":3.196552},"9":{"name":"Marvejols","lat":44.544682,"lon":3.281072},"10":{"name":"Arvant","lat":45.36538,"lon":3.310675},"11":{"name":"Campagnac – St-Geniez","lat":44.421956,"lon":3.066401},"12":{"name":"Le Monastier","lat":44.508968,"lon":3.252057},"13":{"name":"Aumont-Aubrac","lat":44.71817,"lon":3.283549},"14":{"name":"St-Georges-de-Luzençon","lat":44.066553,"lon":2.983784},"15":{"name":"Béziers","lat":43.33633,"lon":3.218873},"16":{"name":"Paris Bercy Bourgogne-Pays d’Auvergne","lat":48.83917,"lon":2.38278},"17":{"name":"Narbonne","lat":43.190387,"lon":3.00591},"18":{"name":"Sète","lat":43.412485,"lon":3.69656},"19":{"name":"Montpellier Sud de France","lat":43.59508,"lon":3.92403},"20":{"name":"Valence TGV","lat":44.991545,"lon":4.978703},"21":{"name":"BARCELONA SANTS","lat":0,"lon":0},"22":{"name":"Nîmes Pont du Gard","lat":43.816944,"lon":4.507778},"23":{"name":"FIGUERES VILAFANT","lat":0,"lon":0},"24":{"name":"GIRONA","lat":0,"lon":0},"25":{"name":"Agde","lat":43.31728,"lon":3.466203},"26":{"name":"Marseille St-Charles","lat":43.302666,"lon":5.380407},"27":{"name":"Nice Ville","lat":43.704556,"lon":7.261904},"28":{"name":"Toulon","lat":43.12837,"lon":5.929293},"29":{"name":"Antibes","lat":43.585784,"lon":7.119498},"30":{"name":"St-Raphaël – Valescure","lat":43.42356,"lon":6.769083},"31":{"name":"Dax","lat":43.720472,"lon":-1.050301},"32":{"name":"Orthez","lat":43.484242,"lon":-0.76776},"33":{"name":"Bordeaux St-Jean","lat":44.825873,"lon":-0.556697},"34":{"name":"Lourdes","lat":43.10037,"lon":-0.042174},"35":{"name":"Carcassonne","lat":43.218029,"lon":2.351824},"36":{"name":"Toulouse Matabiau","lat":43.611206,"lon":1.453616},"37":{"name":"Nîmes Centre","lat":43.832291,"lon":4.365845},"38":{"name":"Montpellier St-Roch","lat":43.604738,"lon":3.880674},"39":{"name":"Arles","lat":43.684853,"lon":4.63203},"40":{"name":"Montauban Ville Bourbon","lat":44.014387,"lon":1.341496},"41":{"name":"Brest","lat":48.38811,"lon":-4.478903},"42":{"name":"Morlaix","lat":48.57797,"lon":-3.832514},"43":{"name":"St-Brieuc","lat":48.50758,"lon":-2.765},"44":{"name":"Aix-en-Provence TGV","lat":43.455237,"lon":5.317534},"45":{"name":"Cannes","lat":43.553839,"lon":7.019682},"46":{"name":"Rennes","lat":48.103517,"lon":-1.672744},"47":{"name":"Laval","lat":48.076206,"lon":-0.760907},"48":{"name":"Massy TGV","lat":48.725758,"lon":2.261254},"49":{"name":"Lyon St-Exupéry TGV","lat":45.721109,"lon":5.074969},"50":{"name":"Marne-la-Vallée – Chessy","lat":48.869856,"lon":2.78272},"51":{"name":"TGV HAUTE PICARDIE","lat":0,"lon":0},"52":{"name":"Lille-Flandres","lat":50.636577,"lon":3.06987},"53":{"name":"Angoulême","lat":45.653572,"lon":0.164608},"54":{"name":"Aéroport Paris Roissy Charles de Gaulle CDG T2","lat":49.003652,"lon":2.570892},"55":{"name":"Poitiers","lat":46.582275,"lon":0.333241},"56":{"name":"Angers St-Laud","lat":47.464647,"lon":-0.55682},"57":{"name":"Nantes","lat":47.216148,"lon":-1.542356},"58":{"name":"Le Mans","lat":47.995034,"lon":0.19014},"59":{"name":"Guingamp","lat":48.555659,"lon":-3.143343},"60":{"name":"Lyon Vaise","lat":45.779938,"lon":4.80396},"61":{"name":"Tourcoing","lat":50.71683,"lon":3.16804},"62":{"name":"St-Pierre-des-Corps","lat":47.386099,"lon":0.72355},"63":{"name":"Strasbourg","lat":48.584967,"lon":7.734584},"64":{"name":"Chartres","lat":48.448202,"lon":1.481313},"65":{"name":"Massy – Palaiseau","lat":48.726421,"lon":2.257528},"66":{"name":"Niort","lat":46.319491,"lon":-0.454639},"67":{"name":"La Rochelle Ville","lat":46.15269,"lon":-1.145305},"68":{"name":"Lorient","lat":47.755597,"lon":-3.366221},"69":{"name":"Auray","lat":47.68022,"lon":-2.999995},"70":{"name":"Quimper","lat":47.994455,"lon":-4.092103},"71":{"name":"Vannes","lat":47.665169,"lon":-2.75245},"72":{"name":"Avignon TGV","lat":43.921586,"lon":4.786079},"73":{"name":"Les Arcs – Draguignan","lat":43.455524,"lon":6.482498},"74":{"name":"Versailles-Chantiers","lat":48.795826,"lon":2.135883},"75":{"name":"Agen","lat":44.208311,"lon":0.620932},"76":{"name":"Les Aubrais","lat":47.926801,"lon":1.906629},"77":{"name":"Juvisy","lat":48.68917,"lon":2.38267},"78":{"name":"Saumur","lat":47.269,"lon":-0.07136},"79":{"name":"Biarritz","lat":43.459397,"lon":-1.545915},"80":{"name":"Metz","lat":49.109545,"lon":6.176593},"81":{"name":"Perpignan","lat":42.696292,"lon":2.879779},"82":{"name":"Bayonne","lat":43.496801,"lon":-1.470306},"83":{"name":"St-Jean-de-Luz – Ciboure","lat":43.385838,"lon":-1.66122},"84":{"name":"Surgères","lat":46.113238,"lon":-0.762284},"85":{"name":"Blois – Chambord","lat":47.585445,"lon":1.323823},"86":{"name":"Meuse TGV","lat":48.978549,"lon":5.270954},"87":{"name":"Verdun","lat":49.165406,"lon":5.379701},"88":{"name":"SOUILLY","lat":0,"lon":0},"89":{"name":"Tours","lat":47.389781,"lon":0.693703},"90":{"name":"SAINT MIHIEL","lat":0,"lon":0},"91":{"name":"SAINT MIHIEL DETENTION","lat":0,"lon":0},"92":{"name":"SAMPIGNY CENTRE","lat":0,"lon":0},"93":{"name":"LEROUVILLE CENTRE","lat":0,"lon":0},"94":{"name":"FRESNES AU MONT","lat":0,"lon":0},"95":{"name":"Amiens","lat":49.890746,"lon":2.312592},"96":{"name":"RIVEDOUX PLAGE","lat":0,"lon":0},"97":{"name":"STE MARIE DE RE","lat":0,"lon":0},"98":{"name":"Sarrebourg","lat":48.73808,"lon":7.05285},"99":{"name":"BRUXELLES MIDI","lat":0,"lon":0},"100":{"name":"Arras","lat":50.286673,"lon":2.781942},"101":{"name":"Marmande","lat":44.503019,"lon":0.168044},"102":{"name":"Besançon-Franche-Comté TGV","lat":47.307361,"lon":5.953195},"103":{"name":"Belfort – Montbéliard TGV","lat":47.585937,"lon":6.897687},"104":{"name":"Mulhouse","lat":47.742224,"lon":7.342396},"105":{"name":"GENEVE CORNAVIN","lat":0,"lon":0},"106":{"name":"BASEL SBB","lat":0,"lon":0},"107":{"name":"Dol-de-Bretagne","lat":48.54425,"lon":-1.750536},"108":{"name":"Colmar","lat":48.073201,"lon":7.346967},"109":{"name":"LES PORTES EN RE","lat":0,"lon":0},"110":{"name":"Les Sables-d’Olonne","lat":46.499917,"lon":-1.78105},"111":{"name":"Sablé-sur-Sarthe","lat":47.841593,"lon":-0.341936},"112":{"name":"La Roche-sur-Yon","lat":46.67212,"lon":-1.435621},"113":{"name":"Lorraine TGV","lat":48.947773,"lon":6.169838},"114":{"name":"Nancy","lat":48.689861,"lon":6.174583},"115":{"name":"Chambéry Challes-les-Eaux","lat":45.571302,"lon":5.919547},"116":{"name":"Annecy","lat":45.901965,"lon":6.121835},"117":{"name":"Mâcon – Loché TGV","lat":46.282884,"lon":4.778876},"118":{"name":"St-Germain-des-Fossés","lat":46.209185,"lon":3.430614},"119":{"name":"Bourges","lat":47.094145,"lon":2.394255},"120":{"name":"Nevers","lat":46.987282,"lon":3.150743},"121":{"name":"Roanne","lat":46.039383,"lon":4.063207},"122":{"name":"Moulins-sur-Allier","lat":46.561346,"lon":3.338842},"123":{"name":"Vierzon","lat":47.226497,"lon":2.059822},"124":{"name":"Landerneau","lat":48.453572,"lon":-4.256528},"125":{"name":"Lamballe","lat":48.46606,"lon":-2.511546},"126":{"name":"Plouaret – Trégor","lat":48.606282,"lon":-3.466823},"127":{"name":"Champagne-Ardenne TGV","lat":49.214806,"lon":3.994632},"128":{"name":"Vendôme","lat":47.80215,"lon":1.067873},"129":{"name":"KARLSRUHE HBF","lat":0,"lon":0},"130":{"name":"Dijon Ville","lat":47.32337,"lon":5.027208},"131":{"name":"Beaune","lat":47.023053,"lon":4.848379},"132":{"name":"Vitré","lat":48.122671,"lon":-1.211754},"133":{"name":"Limoges Bénédictins","lat":45.836089,"lon":1.267356},"134":{"name":"La Souterraine","lat":46.239792,"lon":1.492151},"135":{"name":"Brive-la-Gaillarde","lat":45.152618,"lon":1.528655},"136":{"name":"Argenton-sur-Creuse","lat":46.592248,"lon":1.518305},"137":{"name":"Gourdon","lat":44.741945,"lon":1.389237},"138":{"name":"Châteauroux","lat":46.809737,"lon":1.699536},"139":{"name":"Souillac","lat":44.902127,"lon":1.466605},"140":{"name":"Cahors","lat":44.449275,"lon":1.433325},"141":{"name":"Caussade (Tarn-et-Garonne)","lat":44.162267,"lon":1.533654},"142":{"name":"Aix-les-Bains – Le Revard","lat":45.688161,"lon":5.909371},"143":{"name":"Clermont-Ferrand","lat":45.778945,"lon":3.100543},"144":{"name":"Riom – Châtel-Guyon","lat":45.889965,"lon":3.120498},"145":{"name":"AUGSBURG HBF","lat":0,"lon":0},"146":{"name":"MUNCHEN HBF","lat":0,"lon":0},"147":{"name":"ESSLINGEN(NECKAR)","lat":0,"lon":0},"148":{"name":"MILANO PORTA GARIBALDI","lat":0,"lon":0},"149":{"name":"OUX CESANA CLAV SESTRIERE","lat":0,"lon":0},"150":{"name":"St-Jean-de-Maurienne – Arvan","lat":45.277542,"lon":6.354716},"151":{"name":"Modane","lat":45.193365,"lon":6.658161},"152":{"name":"Issoudun","lat":46.948763,"lon":1.985834},"153":{"name":"VALLORBE","lat":0,"lon":0},"154":{"name":"LAUSANNE","lat":0,"lon":0},"155":{"name":"Mouchard","lat":46.976911,"lon":5.799644},"156":{"name":"Dole Ville","lat":47.096084,"lon":5.488105},"157":{"name":"Frasne","lat":46.857596,"lon":6.157767},"158":{"name":"Collioure","lat":42.526944,"lon":3.078232},"159":{"name":"Pau","lat":43.291762,"lon":-0.369626},"160":{"name":"St-Gaudens","lat":43.105034,"lon":0.729104},"161":{"name":"Tarbes","lat":43.239955,"lon":0.069415},"162":{"name":"PIERREFITTE SUR AIRE","lat":0,"lon":0},"163":{"name":"Hendaye","lat":43.353132,"lon":-1.781724},"164":{"name":"Commercy","lat":48.765749,"lon":5.58861},"165":{"name":"Saintes","lat":45.74874,"lon":-0.6179},"166":{"name":"Jonzac","lat":45.438746,"lon":-0.44164},"167":{"name":"Luçon","lat":46.463823,"lon":-1.167422},"168":{"name":"Rochefort","lat":45.947189,"lon":-0.963556},"169":{"name":"Lannemezan","lat":43.114273,"lon":0.387367},"170":{"name":"Albertville","lat":45.672977,"lon":6.383167},"171":{"name":"Bourg-St-Maurice","lat":45.619036,"lon":6.771273},"172":{"name":"Landry","lat":45.574171,"lon":6.733818},"173":{"name":"Moûtiers – Salins","lat":45.486344,"lon":6.531425},"174":{"name":"STUTTGART HBF","lat":0,"lon":0},"175":{"name":"Grenoble","lat":45.191493,"lon":5.714584},"176":{"name":"TORINO PORTA SUSA","lat":0,"lon":0},"177":{"name":"Charleville-Mézières","lat":49.767915,"lon":4.724952},"178":{"name":"FREIBURG (BREISGAU) HBF","lat":0,"lon":0},"179":{"name":"OFFENBURG","lat":0,"lon":0},"180":{"name":"RINGSHEIM EUROPA PARK","lat":0,"lon":0},"181":{"name":"St-Malo","lat":48.646859,"lon":-2.004158},"182":{"name":"BIGANOS FACTURE","lat":0,"lon":0},"183":{"name":"Arcachon","lat":44.659009,"lon":-1.16523},"184":{"name":"La Teste","lat":44.636924,"lon":-1.14295},"185":{"name":"Dunkerque","lat":51.03047,"lon":2.368961},"186":{"name":"MARENNES","lat":0,"lon":0},"187":{"name":"DOLUS D'OLERON","lat":0,"lon":0},"188":{"name":"ST PIERRE D'OLERON","lat":0,"lon":0},"189":{"name":"LUXEMBOURG","lat":0,"lon":0},"190":{"name":"Futuroscope","lat":46.669918,"lon":0.377209},"191":{"name":"LACANAU OCEAN","lat":0,"lon":0},"192":{"name":"Bar-le-Duc","lat":48.773308,"lon":5.166822},"193":{"name":"LA NOUE","lat":0,"lon":0},"194":{"name":"ST MARTIN DE RE","lat":0,"lon":0},"195":{"name":"St-Étienne Châteaucreux","lat":45.443366,"lon":4.399722},"196":{"name":"BOURCEFRANC LE CHAPUS","lat":0,"lon":0},"197":{"name":"Quimperlé","lat":47.869375,"lon":-3.552693},"198":{"name":"Rosporden","lat":47.960273,"lon":-3.832763},"199":{"name":"Redon","lat":47.652004,"lon":-2.08777},"200":{"name":"St-Maixent","lat":46.406607,"lon":-0.201073},"201":{"name":"Rethel","lat":49.504393,"lon":4.369566},"202":{"name":"Orange","lat":44.137304,"lon":4.819594},"203":{"name":"Avignon Centre","lat":43.9419,"lon":4.805281},"204":{"name":"Miramas","lat":43.580704,"lon":5.000264},"205":{"name":"Montélimar","lat":44.559079,"lon":4.744792},"206":{"name":"Uzerche","lat":45.440709,"lon":1.570274},"207":{"name":"Mâcon Ville","lat":46.302572,"lon":4.824887},"208":{"name":"Reims Maison Blanche","lat":49.233685,"lon":4.022493},"209":{"name":"Bellegarde-sur-Valserine","lat":46.109425,"lon":5.823483},"210":{"name":"Hazebrouck","lat":50.72501,"lon":2.54129},"211":{"name":"Lens","lat":50.426818,"lon":2.828254},"212":{"name":"Bourg-en-Bresse","lat":46.200351,"lon":5.215063},"213":{"name":"Le Croisic","lat":47.289836,"lon":-2.507442},"214":{"name":"La Baule-Escoublac","lat":47.28869,"lon":-2.389102},"215":{"name":"St-Nazaire","lat":47.286412,"lon":-2.211096},"216":{"name":"Ancenis","lat":47.369334,"lon":-1.177763},"217":{"name":"Châtellerault","lat":46.818594,"lon":0.549279},"218":{"name":"Thionville","lat":49.353931,"lon":6.169543},"219":{"name":"Le Creusot","lat":46.807815,"lon":4.43044},"220":{"name":"Lunéville","lat":48.588233,"lon":6.49727},"221":{"name":"Libourne","lat":44.915888,"lon":-0.236344},"222":{"name":"MANNHEIM HBF","lat":0,"lon":0},"223":{"name":"FRANKFURT AM MAIN HBF","lat":0,"lon":0},"224":{"name":"Châlons-en-Champagne","lat":48.955252,"lon":4.348656},"225":{"name":"Vichy","lat":46.126979,"lon":3.430448},"226":{"name":"Nurieux","lat":46.18422,"lon":5.532749},"227":{"name":"LOIX","lat":0,"lon":0},"228":{"name":"Chalon-sur-Saône","lat":46.781612,"lon":4.843454},"229":{"name":"Besançon Viotte","lat":47.247019,"lon":6.022003},"230":{"name":"BADEN BADEN","lat":0,"lon":0},"231":{"name":"Évian-les-Bains","lat":46.397915,"lon":6.577457},"232":{"name":"Annemasse","lat":46.199222,"lon":6.23652},"233":{"name":"Thonon-les-Bains","lat":46.369004,"lon":6.481669},"234":{"name":"Remiremont","lat":48.016363,"lon":6.598855},"235":{"name":"St-Quentin","lat":49.840048,"lon":3.297009},"236":{"name":"Montdauphin – Guillestre","lat":44.674628,"lon":6.615603},"237":{"name":"L’Argentière – Les-Ecrins","lat":44.79098,"lon":6.556416},"238":{"name":"Neufchâteau","lat":48.358343,"lon":5.690402},"239":{"name":"Toul","lat":48.679018,"lon":5.880615},"240":{"name":"Culmont-Chalindrey","lat":47.81009,"lon":5.443222},"241":{"name":"Le Havre","lat":49.492996,"lon":0.125677},"242":{"name":"Mantes-la-Jolie","lat":48.98984,"lon":1.70337},"243":{"name":"Rouen Rive Droite","lat":49.448764,"lon":1.094087},"244":{"name":"Douai","lat":50.371677,"lon":3.089986},"245":{"name":"Béthune","lat":50.52144,"lon":2.64055},"246":{"name":"Marseille Blancarde","lat":43.296144,"lon":5.406559},"247":{"name":"Rang-du-Fliers – Verton","lat":50.41579,"lon":1.64805},"248":{"name":"Calais Fréthun","lat":50.902585,"lon":1.811286},"249":{"name":"Montbard","lat":47.618747,"lon":4.33616},"250":{"name":"BOULOGNE VILLE","lat":0,"lon":0},"251":{"name":"Le Pouliguen","lat":47.28254,"lon":-2.433145},"252":{"name":"Pornichet","lat":47.270535,"lon":-2.344577},"253":{"name":"Montréjeau – Gourdan-Polignan","lat":43.078109,"lon":0.5735},"254":{"name":"Lannion","lat":48.727638,"lon":-3.460353},"255":{"name":"KAISERSLAUTERN HBF","lat":0,"lon":0},"256":{"name":"Forbach","lat":49.189228,"lon":6.901318},"257":{"name":"ULM HBF","lat":0,"lon":0},"258":{"name":"Chorges","lat":44.545842,"lon":6.271889},"259":{"name":"St-Chély-d’Apcher","lat":44.801738,"lon":3.27069},"260":{"name":"Neussargues","lat":45.125304,"lon":2.979187},"261":{"name":"St-Flour – Chaudes-Aigues","lat":45.035012,"lon":3.106286},"262":{"name":"Issoire","lat":45.543884,"lon":3.25398},"263":{"name":"Banassac – La Canourgue","lat":44.447763,"lon":3.195852},"264":{"name":"Magalas","lat":43.4676,"lon":3.229542},"265":{"name":"Saverne","lat":48.744461,"lon":7.36208},"266":{"name":"Leucate – La-Franqui","lat":42.932773,"lon":3.012856},"267":{"name":"Etaples – Le Touquet","lat":50.51686,"lon":1.64231},"268":{"name":"SAARBRUECKEN/SARREBRUCK","lat":0,"lon":0},"269":{"name":"St-Christophe","lat":44.464619,"lon":2.407759},"270":{"name":"Croix – Wasquehal","lat":50.678557,"lon":3.138032},"271":{"name":"Mérens-les-Vals","lat":42.659488,"lon":1.837128},"272":{"name":"Pamiers","lat":43.116207,"lon":1.619451},"273":{"name":"Saverdun","lat":43.239357,"lon":1.570616},"274":{"name":"Auterive (Haute Garonne)","lat":43.348993,"lon":1.468831},"275":{"name":"Crest","lat":44.730155,"lon":5.016097},"276":{"name":"Gap","lat":44.563693,"lon":6.085638},"277":{"name":"Banyuls-sur-Mer","lat":42.482958,"lon":3.12505},"278":{"name":"Valenciennes","lat":50.363259,"lon":3.517115},"279":{"name":"Rocamadour – Padirac","lat":44.818356,"lon":1.657349},"280":{"name":"Viviez – Decazeville","lat":44.555568,"lon":2.218258},"281":{"name":"Vitry-le-François","lat":48.718142,"lon":4.587581},"282":{"name":"Saint-Dié-des-Vosges","lat":48.282225,"lon":6.948656},"283":{"name":"Épinal","lat":48.178005,"lon":6.441787},"284":{"name":"Sedan","lat":49.695024,"lon":4.930373},"285":{"name":"ZURICH HB","lat":0,"lon":0},"286":{"name":"Bretenoux – Biars","lat":44.927369,"lon":1.843687},"287":{"name":"L'HOSPITALET PRES L'AND.","lat":0,"lon":0},"288":{"name":"Tarascon-sur-Ariège","lat":42.849539,"lon":1.599932},"289":{"name":"Hyères","lat":43.108867,"lon":6.124223},"290":{"name":"Roubaix","lat":50.69561,"lon":3.16348},"291":{"name":"Foix","lat":42.969746,"lon":1.607147},"292":{"name":"Luzenac – Garanou","lat":42.764285,"lon":1.753125},"293":{"name":"St-Vincent-de-Tyrosse","lat":43.657736,"lon":-1.306493},"294":{"name":"Cransac","lat":44.522951,"lon":2.271867},"295":{"name":"Sélestat","lat":48.260117,"lon":7.443278},"296":{"name":"Laroquebrou","lat":44.964166,"lon":2.192917},"297":{"name":"LAHR SCHWARZW","lat":0,"lon":0},"298":{"name":"Porté-Puymorens","lat":42.539136,"lon":1.824846},"299":{"name":"Latour-de-Carol – Enveitg","lat":42.459046,"lon":1.904503},"300":{"name":"Les Cabannes","lat":42.786285,"lon":1.686299},"301":{"name":"Aime-la-Plagne","lat":45.5544,"lon":6.648646},"302":{"name":"Cerbère","lat":42.441773,"lon":3.163403},"303":{"name":"Embrun","lat":44.567008,"lon":6.496773},"304":{"name":"Die","lat":44.758255,"lon":5.363205},"305":{"name":"Luc-en-Diois","lat":44.613662,"lon":5.454623},"306":{"name":"Briançon","lat":44.889853,"lon":6.633007},"307":{"name":"ANGOULAME","lat":0,"lon":0},"308":{"name":"Albi Madeleine","lat":43.938011,"lon":2.140963},"309":{"name":"Capdenac","lat":44.578246,"lon":2.077963},"310":{"name":"Figeac","lat":44.603515,"lon":2.037355},"311":{"name":"Rodez","lat":44.362633,"lon":2.58056},"312":{"name":"St-Denis-près-Martel","lat":44.945932,"lon":1.666338},"313":{"name":"Naucelle","lat":44.185479,"lon":2.363504},"314":{"name":"Rivesaltes","lat":42.766441,"lon":2.86789},"315":{"name":"Elne","lat":42.597114,"lon":2.963585},"316":{"name":"Port-Vendres","lat":42.513608,"lon":3.102576},"317":{"name":"Argelès-sur-Mer","lat":42.54397,"lon":3.022349},"318":{"name":"Ax-les-Thermes","lat":42.724797,"lon":1.833252},"319":{"name":"Aurillac","lat":44.921092,"lon":2.435655},"320":{"name":"Veynes – Dévoluy","lat":44.532005,"lon":5.815764},"321":{"name":"Assier","lat":44.67462,"lon":1.869768},"322":{"name":"Aubin","lat":44.527276,"lon":2.239313},"323":{"name":"Cluses","lat":46.061447,"lon":6.582663},"324":{"name":"St-Gervais-les-Bains – Le Fayet","lat":45.906423,"lon":6.701331},"325":{"name":"St-Michel – Valloire","lat":45.216916,"lon":6.471914},"326":{"name":"Sallanches – Combloux – Megève","lat":45.935702,"lon":6.636431},"327":{"name":"VAIHINGEN (ENZ)","lat":0,"lon":0},"328":{"name":"Port-la-Nouvelle","lat":43.019934,"lon":3.038819},"329":{"name":"Gramat","lat":44.773428,"lon":1.722303},"330":{"name":"St-Avre – La Chambre","lat":45.353098,"lon":6.302828},"331":{"name":"HALLE (SAALE) HBF","lat":0,"lon":0},"332":{"name":"ERFURT HBF","lat":0,"lon":0},"333":{"name":"BERLIN-GESUNDBRUNNEN","lat":0,"lon":0},"334":{"name":"BERLIN HBF","lat":0,"lon":0},"335":{"name":"BERLIN SUDKREUZ","lat":0,"lon":0},"336":{"name":"Carmaux","lat":44.048782,"lon":2.152401},"337":{"name":"Albi Ville","lat":43.92238,"lon":2.137958}}